{"Afghanistan":[{"name":"Andkhvoy","lat":36.9317,"lng":65.1015},{"name":"Asadabad","lat":34.866,"lng":71.15},{"name":"Aybak","lat":36.261,"lng":68.04},{"name":"Baghlan","lat":36.1393,"lng":68.6993},{"name":"Balkh","lat":36.7501,"lng":66.8997},{"name":"Bamian","lat":34.8211,"lng":67.521},{"name":"Baraki Barak","lat":33.9667,"lng":68.9667},{"name":"Bazarak","lat":35.3129,"lng":69.5152},{"name":"Chaghcharan","lat":34.5167,"lng":65.25},{"name":"Charikar","lat":35.0183,"lng":69.1679},{"name":"Farah","lat":32.3917,"lng":62.0968},{"name":"Feyzabad","lat":37.1298,"lng":70.5792},{"name":"Gardiz","lat":33.6001,"lng":69.2146},{"name":"Ghazni","lat":33.5633,"lng":68.4178},{"name":"Herat","lat":34.33,"lng":62.17},{"name":"Jalalabad","lat":34.4415,"lng":70.4361},{"name":"Kabul","lat":34.5167,"lng":69.1833},{"name":"Kandahar","lat":31.61,"lng":65.6949},{"name":"Karokh","lat":34.4868,"lng":62.5918},{"name":"Khost","lat":33.3395,"lng":69.9204},{"name":"Kondoz","lat":36.728,"lng":68.8725},{"name":"Lashkar Gah","lat":31.583,"lng":64.36},{"name":"Mahmud-E Eraqi","lat":35.0167,"lng":69.3333},{"name":"Maidan Shahr","lat":34.3956,"lng":68.8662},{"name":"Mayda Shahr","lat":34.45,"lng":68.8},{"name":"Mazar-e Sharif","lat":36.7,"lng":67.1},{"name":"Mehtar Lam","lat":34.65,"lng":70.1667},{"name":"Meymaneh","lat":35.9302,"lng":64.7701},{"name":"Nili","lat":33.7218,"lng":66.1302},{"name":"Parun","lat":35.4206,"lng":70.9226},{"name":"Pol-e Khomri","lat":35.9511,"lng":68.7011},{"name":"Pul-e `Alam","lat":33.9953,"lng":69.0227},{"name":"Qala i Naw","lat":34.983,"lng":63.1333},{"name":"Qalat","lat":32.1123,"lng":66.8868},{"name":"Sar-e Pul","lat":36.2154,"lng":65.9325},{"name":"Sharan","lat":33.1757,"lng":68.7304},{"name":"Sheberghan","lat":36.658,"lng":65.7383},{"name":"Taloqan","lat":36.73,"lng":69.54},{"name":"Tarin Kowt","lat":32.6333,"lng":65.8667},{"name":"Zaranj","lat":31.112,"lng":61.887},{"name":"Zareh Sharan","lat":32.85,"lng":68.4167}],"Albania":[{"name":"Bajram Curri","lat":42.3333,"lng":20.0833},{"name":"Berat","lat":40.71,"lng":19.972},{"name":"Burrel","lat":41.626,"lng":20.016},{"name":"Corovode","lat":40.5167,"lng":20.2333},{"name":"Durres","lat":41.3178,"lng":19.4482},{"name":"Elbasan","lat":41.1215,"lng":20.0838},{"name":"Erseke","lat":40.3333,"lng":20.6833},{"name":"Fier","lat":40.73,"lng":19.573},{"name":"Gjirokaster","lat":40.079,"lng":20.149},{"name":"Gramsh","lat":40.8667,"lng":20.2},{"name":"Korce","lat":40.6167,"lng":20.7667},{"name":"Kruje","lat":41.519,"lng":19.797},{"name":"Kukes","lat":42.083,"lng":20.434},{"name":"Lezhe","lat":41.788,"lng":19.654},{"name":"Librazhd","lat":41.2,"lng":20.3667},{"name":"Lushnje","lat":40.94,"lng":19.716},{"name":"Permet","lat":40.234,"lng":20.352},{"name":"Peshkopi","lat":41.6833,"lng":20.4333},{"name":"Pogradec","lat":40.9,"lng":20.664},{"name":"Puke","lat":42.0333,"lng":19.8833},{"name":"Rreshen","lat":41.7833,"lng":19.8167},{"name":"Sarande","lat":39.877,"lng":20},{"name":"Shkoder","lat":42.0685,"lng":19.5188},{"name":"Tepelene","lat":40.2833,"lng":20.0333},{"name":"Tirana","lat":41.3275,"lng":19.8189},{"name":"Vlore","lat":40.4774,"lng":19.4982}],"Algeria":[{"name":"Abadla","lat":31.0171,"lng":-2.7333},{"name":"Adrar","lat":27.87,"lng":-0.29},{"name":"Ain Defla","lat":36.2641,"lng":1.9679},{"name":"Ain Temouchent","lat":35.2975,"lng":-1.1404},{"name":"Algiers","lat":36.7631,"lng":3.0506},{"name":"Annaba","lat":36.92,"lng":7.76},{"name":"Batna","lat":35.57,"lng":6.17},{"name":"Bechar","lat":31.6111,"lng":-2.23},{"name":"Bejaia","lat":36.7604,"lng":5.07},{"name":"Beni Ounif","lat":32.0493,"lng":-1.2514},{"name":"Biskra","lat":34.86,"lng":5.73},{"name":"Blida","lat":36.4203,"lng":2.83},{"name":"Bordj Bou Arreridj","lat":36.059,"lng":4.63},{"name":"Bouira","lat":36.3805,"lng":3.9},{"name":"Boumerdes","lat":36.759,"lng":3.4748},{"name":"Chlef","lat":36.1704,"lng":1.32},{"name":"Constantine","lat":36.36,"lng":6.5999},{"name":"Djanet","lat":24.5529,"lng":9.4823},{"name":"Djelfa","lat":34.68,"lng":3.25},{"name":"El Bayadh","lat":33.6904,"lng":1.01},{"name":"El Golea","lat":30.5666,"lng":2.8833},{"name":"El Oued","lat":33.3704,"lng":6.86},{"name":"El Tarf","lat":36.7672,"lng":8.3138},{"name":"Ghardaia","lat":32.49,"lng":3.67},{"name":"Guelma","lat":36.466,"lng":7.428},{"name":"Hassi Messaoud","lat":31.7023,"lng":6.0545},{"name":"I-n-Amenas","lat":28.0503,"lng":9.55},{"name":"I-n-Salah","lat":27.2166,"lng":2.4666},{"name":"Illizi","lat":26.4834,"lng":8.4666},{"name":"In Amguel","lat":23.6939,"lng":5.1647},{"name":"Jijel","lat":36.822,"lng":5.766},{"name":"Khenchela","lat":35.4358,"lng":7.1433},{"name":"Laghouat","lat":33.81,"lng":2.88},{"name":"M'sila","lat":35.7,"lng":4.545},{"name":"Mascara","lat":35.4004,"lng":0.14},{"name":"Medea","lat":36.2704,"lng":2.77},{"name":"Mila","lat":36.4503,"lng":6.2644},{"name":"Mostaganem","lat":35.9404,"lng":0.09},{"name":"Naama","lat":33.2667,"lng":-0.3167},{"name":"Oran","lat":35.71,"lng":-0.62},{"name":"Ouargla","lat":31.97,"lng":5.34},{"name":"Oum el Bouaghi","lat":35.85,"lng":7.15},{"name":"Reggane","lat":26.7,"lng":0.1666},{"name":"Relizane","lat":35.7373,"lng":0.556},{"name":"Saida","lat":34.8404,"lng":0.14},{"name":"Sefra","lat":32.7604,"lng":-0.5799},{"name":"Setif","lat":36.18,"lng":5.4},{"name":"Sidi bel Abbes","lat":35.1903,"lng":-0.64},{"name":"Skikda","lat":36.8804,"lng":6.9},{"name":"Souk Ahras","lat":36.2904,"lng":7.95},{"name":"Tamanrasset","lat":22.785,"lng":5.5228},{"name":"Tebessa","lat":35.4104,"lng":8.12},{"name":"Tiarat","lat":35.3804,"lng":1.32},{"name":"Timimoun","lat":29.2365,"lng":0.27},{"name":"Tindouf","lat":27.6742,"lng":-8.1478},{"name":"Tipasa","lat":36.5897,"lng":2.4475},{"name":"Tissemsilt","lat":35.6072,"lng":1.8108},{"name":"Tizi-Ouzou","lat":36.8,"lng":4.0333},{"name":"Tlimcen","lat":34.8904,"lng":-1.32},{"name":"Touggourt","lat":33.1,"lng":6.06}],"American Samoa":[{"name":"Pago Pago","lat":-14.274,"lng":-170.7046}],"Andorra":[{"name":"Andorra","lat":42.5,"lng":1.5165},{"name":"Canillo","lat":42.567,"lng":1.5981},{"name":"Encamp","lat":42.5361,"lng":1.5828},{"name":"Escaldes-Engordany","lat":42.5085,"lng":1.5385},{"name":"La Massana","lat":42.5434,"lng":1.5148},{"name":"Ordino","lat":42.5563,"lng":1.5327},{"name":"Sant Julia de Loria","lat":42.4664,"lng":1.4933}],"Angola":[{"name":"Ambriz","lat":-7.855,"lng":13.125},{"name":"Benguela","lat":-12.5783,"lng":13.4072},{"name":"Cabinda","lat":-5.5596,"lng":12.19},{"name":"Cacolo","lat":-10.1496,"lng":19.26},{"name":"Calucinga","lat":-11.3196,"lng":16.2},{"name":"Calulo","lat":-9.9996,"lng":14.9},{"name":"Camabatela","lat":-8.1896,"lng":15.37},{"name":"Camacupa","lat":-12.0196,"lng":17.47},{"name":"Cangamba","lat":-13.6996,"lng":19.86},{"name":"Capenda-Camulemba","lat":-9.4196,"lng":18.43},{"name":"Caxito","lat":-8.5795,"lng":13.66},{"name":"Cazombo","lat":-11.8896,"lng":22.9},{"name":"Chibemba","lat":-15.7496,"lng":14.08},{"name":"Chibia","lat":-15.1896,"lng":13.69},{"name":"Chitado","lat":-17.3196,"lng":13.92},{"name":"Cubal","lat":-13.0396,"lng":14.24},{"name":"Cuito Caunavale","lat":-15.1596,"lng":19.17},{"name":"Dondo","lat":-9.69,"lng":14.43},{"name":"Dundo","lat":-7.38,"lng":20.83},{"name":"Huambo","lat":-12.75,"lng":15.76},{"name":"Kuito","lat":-12.38,"lng":16.94},{"name":"Lobito","lat":-12.37,"lng":13.5412},{"name":"Luanda","lat":-8.8383,"lng":13.2344},{"name":"Luau","lat":-10.7095,"lng":22.23},{"name":"Lubango","lat":-14.9167,"lng":13.5},{"name":"Lubango","lat":-14.91,"lng":13.49},{"name":"Lucapa","lat":-8.4196,"lng":20.74},{"name":"Luena","lat":-11.79,"lng":19.9},{"name":"Luiana","lat":-17.3695,"lng":23},{"name":"Malanje","lat":-9.54,"lng":16.34},{"name":"Mavinga","lat":-15.7895,"lng":20.36},{"name":"Mbanza-Congo","lat":-6.2696,"lng":14.24},{"name":"Menongue","lat":-14.6666,"lng":17.7},{"name":"Muconda","lat":-10.5996,"lng":21.32},{"name":"Mucusso","lat":-18.0195,"lng":21.43},{"name":"Namibe","lat":-15.19,"lng":12.16},{"name":"Ndalatando","lat":-9.2995,"lng":14.91},{"name":"Nzeto","lat":-7.2296,"lng":12.86},{"name":"Ondjiva","lat":-17.0696,"lng":15.73},{"name":"Quibala","lat":-10.7296,"lng":14.98},{"name":"Quipungo","lat":-14.8295,"lng":14.55},{"name":"Saurimo","lat":-9.6596,"lng":20.39},{"name":"Songo","lat":-7.3496,"lng":14.85},{"name":"Soyo","lat":-6.1296,"lng":12.37},{"name":"Sumbe","lat":-11.21,"lng":13.85},{"name":"Tombua","lat":-15.8,"lng":11.86},{"name":"Uige","lat":-7.62,"lng":15.05},{"name":"Waku Kungo","lat":-11.3595,"lng":15.12},{"name":"Xangongo","lat":-16.74,"lng":14.97}],"Anguilla":[{"name":"The Valley","lat":18.2167,"lng":-63.05}],"Antigua And Barbuda":[{"name":"Saint John's","lat":17.118,"lng":-61.85}],"Argentina":[{"name":"25 de Mayo","lat":-37.8,"lng":-67.6833},{"name":"28 de Noviembre","lat":-51.65,"lng":-72.3},{"name":"Abra Pampa","lat":-22.7167,"lng":-65.7},{"name":"Alta Gracia","lat":-31.66,"lng":-64.43},{"name":"Alto Rio Sanguer","lat":-45.0333,"lng":-70.8333},{"name":"Anatuya","lat":-28.4661,"lng":-62.8333},{"name":"Azul","lat":-36.7796,"lng":-59.87},{"name":"Bahia Blanca","lat":-38.74,"lng":-62.265},{"name":"Balcarce","lat":-37.8333,"lng":-58.25},{"name":"Belen","lat":-27.6496,"lng":-67.0333},{"name":"Bell Ville","lat":-32.6,"lng":-62.68},{"name":"Buenos Aires","lat":-34.6025,"lng":-58.3975},{"name":"Cafayate","lat":-26.0829,"lng":-65.9666},{"name":"Campana","lat":-34.16,"lng":-58.96},{"name":"Carhue","lat":-37.1829,"lng":-62.7333},{"name":"Catamarca","lat":-28.47,"lng":-65.78},{"name":"Cerrillos","lat":-24.8996,"lng":-65.4833},{"name":"Chacabuco","lat":-34.65,"lng":-60.49},{"name":"Chamical","lat":-30.3496,"lng":-66.3167},{"name":"Charata","lat":-27.2163,"lng":-61.2},{"name":"Chascomus","lat":-35.5662,"lng":-58.0166},{"name":"Chepes","lat":-31.35,"lng":-66.6},{"name":"Chilecito","lat":-29.1655,"lng":-67.5},{"name":"Chivilcoy","lat":-34.9,"lng":-60.04},{"name":"Choele Choel","lat":-39.2666,"lng":-65.6833},{"name":"Chos Malal","lat":-37.383,"lng":-70.2666},{"name":"Chumbicha","lat":-28.8666,"lng":-66.2333},{"name":"Comallo","lat":-41.0333,"lng":-70.2666},{"name":"Comandante Fontana","lat":-25.3333,"lng":-59.6833},{"name":"Comodoro Rivadavia","lat":-45.87,"lng":-67.5},{"name":"Comondante Luis Piedrabuena","lat":-49.9745,"lng":-68.9035},{"name":"Concepcion del Uruguay","lat":-32.48,"lng":-58.24},{"name":"Concordia","lat":-31.3896,"lng":-58.03},{"name":"Cordoba","lat":-31.4,"lng":-64.1823},{"name":"Coronel Suarez","lat":-37.4666,"lng":-61.9166},{"name":"Corrientes","lat":-27.49,"lng":-58.81},{"name":"Cutral Co","lat":-38.94,"lng":-69.24},{"name":"Darregueira","lat":-37.6996,"lng":-63.1666},{"name":"Dolores","lat":-36.33,"lng":-57.69},{"name":"El Calafate","lat":-50.3333,"lng":-72.3},{"name":"El Maiten","lat":-42.05,"lng":-71.1666},{"name":"Eldorado","lat":-26.2,"lng":-54.6},{"name":"Esquel","lat":-42.9,"lng":-71.3166},{"name":"Formosa","lat":-26.1728,"lng":-58.1828},{"name":"Frias","lat":-28.6496,"lng":-65.15},{"name":"Gastre","lat":-42.283,"lng":-69.2333},{"name":"General Conesa","lat":-40.1,"lng":-64.4333},{"name":"General Guemes","lat":-24.6666,"lng":-65.05},{"name":"General Pico","lat":-35.6596,"lng":-63.77},{"name":"General Roca","lat":-39.02,"lng":-67.61},{"name":"Gobernador Gregores","lat":-48.7666,"lng":-70.25},{"name":"Goya","lat":-29.14,"lng":-59.27},{"name":"Gualeguay","lat":-33.15,"lng":-59.34},{"name":"Gualeguaychu","lat":-33.02,"lng":-58.52},{"name":"Humahuaca","lat":-23.2,"lng":-65.3499},{"name":"Ingeniero Guillermo N. Juarez","lat":-23.9,"lng":-61.85},{"name":"Ingeniero Jacobacci","lat":-41.3,"lng":-69.5833},{"name":"Joaquin V. Gonzalez","lat":-25.0833,"lng":-64.1834},{"name":"Juan Jose Castelli","lat":-25.9495,"lng":-60.6166},{"name":"Juarez","lat":-37.6655,"lng":-59.8},{"name":"Junin","lat":-34.5846,"lng":-60.9589},{"name":"La Paz","lat":-33.4661,"lng":-67.55},{"name":"La Plata","lat":-34.9096,"lng":-57.96},{"name":"La Rioja","lat":-29.41,"lng":-66.85},{"name":"Las Heras","lat":-32.825,"lng":-68.8017},{"name":"Las Lajas","lat":-38.5163,"lng":-70.3666},{"name":"Las Lomitas","lat":-24.6996,"lng":-60.6},{"name":"Libertador General San Martin","lat":-23.8195,"lng":-64.79},{"name":"Lincoln","lat":-34.88,"lng":-61.5399},{"name":"Lobos","lat":-35.1849,"lng":-59.0947},{"name":"Los Blancos","lat":-23.5996,"lng":-62.6},{"name":"Lujan","lat":-34.5796,"lng":-59.11},{"name":"Malargue","lat":-35.4661,"lng":-69.5833},{"name":"Mar de Ajo","lat":-36.7162,"lng":-56.6766},{"name":"Mar del Plata","lat":-38,"lng":-57.58},{"name":"Mendoza","lat":-32.8833,"lng":-68.8166},{"name":"Mercedes","lat":-33.6896,"lng":-65.47},{"name":"Mercedes","lat":-34.66,"lng":-59.44},{"name":"Mercedes","lat":-29.1796,"lng":-58.08},{"name":"Monte Quemado","lat":-25.7996,"lng":-62.8666},{"name":"Necochea","lat":-38.56,"lng":-58.75},{"name":"Neuquen","lat":-38.95,"lng":-68.06},{"name":"Nueve de Julio","lat":-35.446,"lng":-60.89},{"name":"Olavarria","lat":-36.9,"lng":-60.33},{"name":"Pampa del Infierno","lat":-26.5166,"lng":-61.1666},{"name":"Parana","lat":-31.7333,"lng":-60.5333},{"name":"Paso Rio Mayo","lat":-45.6834,"lng":-70.2666},{"name":"Pedro Luro","lat":-39.4833,"lng":-62.6833},{"name":"Pergamino","lat":-33.8996,"lng":-60.57},{"name":"Perito Moreno","lat":-46.6,"lng":-70.9334},{"name":"Posadas","lat":-27.3578,"lng":-55.8851},{"name":"Presidencia Roque Saenz Pena","lat":-26.79,"lng":-60.45},{"name":"Puerto Deseado","lat":-47.75,"lng":-65.9},{"name":"Puerto Madryn","lat":-42.77,"lng":-65.04},{"name":"Puerto San Julian","lat":-49.3,"lng":-67.7167},{"name":"Punta Alta","lat":-38.88,"lng":-62.08},{"name":"Rafaela","lat":-31.25,"lng":-61.5},{"name":"Rawson","lat":-43.3,"lng":-65.1},{"name":"Reconquista","lat":-29.1395,"lng":-59.65},{"name":"Resistencia","lat":-27.46,"lng":-58.99},{"name":"Rinconada","lat":-22.4329,"lng":-66.1666},{"name":"Rio Colorado","lat":-38.9666,"lng":-64.0833},{"name":"Rio Cuarto","lat":-33.13,"lng":-64.35},{"name":"Rio Gallegos","lat":-51.6333,"lng":-69.2166},{"name":"Rio Grande","lat":-53.7914,"lng":-67.699},{"name":"Rio Tercero","lat":-32.1796,"lng":-64.12},{"name":"Rodeo","lat":-30.2156,"lng":-69.14},{"name":"Rosario","lat":-32.9511,"lng":-60.6663},{"name":"Salta","lat":-24.7834,"lng":-65.4166},{"name":"San Antonio de los Cobres","lat":-24.1829,"lng":-66.35},{"name":"San Antonio Oeste","lat":-40.7329,"lng":-64.9333},{"name":"San Carlos de Bariloche","lat":-41.15,"lng":-71.3},{"name":"San Francisco","lat":-31.43,"lng":-62.09},{"name":"San Juan","lat":-31.55,"lng":-68.52},{"name":"San Justo","lat":-30.7829,"lng":-60.5833},{"name":"San Lorenzo","lat":-28.12,"lng":-58.77},{"name":"San Luis","lat":-33.3,"lng":-66.35},{"name":"San Martin","lat":-33.07,"lng":-68.49},{"name":"San Nicolas","lat":-33.33,"lng":-60.24},{"name":"San Pedro","lat":-24.2196,"lng":-64.87},{"name":"San Rafael","lat":-34.6,"lng":-68.3333},{"name":"San Ramon de la Nueva Oran","lat":-23.14,"lng":-64.32},{"name":"San Salvador de Jujuy","lat":-24.1833,"lng":-65.3},{"name":"Santa Fe","lat":-31.6239,"lng":-60.69},{"name":"Santa Rosa","lat":-36.62,"lng":-64.3},{"name":"Santiago del Estero","lat":-27.7833,"lng":-64.2667},{"name":"Sarmiento","lat":-45.6,"lng":-69.0833},{"name":"Sierra Colorado","lat":-40.5829,"lng":-67.8},{"name":"Sunchales","lat":-30.9329,"lng":-61.5666},{"name":"Susques","lat":-23.4167,"lng":-66.4833},{"name":"Tandil","lat":-37.32,"lng":-59.15},{"name":"Tartagal","lat":-22.55,"lng":-63.81},{"name":"Telsen","lat":-42.3996,"lng":-66.95},{"name":"Tinogasta","lat":-28.0666,"lng":-67.5666},{"name":"Trancas","lat":-26.2167,"lng":-65.2833},{"name":"Trelew","lat":-43.25,"lng":-65.33},{"name":"Tres Arroyos","lat":-38.37,"lng":-60.2699},{"name":"Tucuman","lat":-26.816,"lng":-65.2166},{"name":"Tunuyan","lat":-33.5662,"lng":-69.0167},{"name":"Ushuaia","lat":-54.79,"lng":-68.31},{"name":"Uspallata","lat":-32.5931,"lng":-69.346},{"name":"Veinticinco de Mayo","lat":-35.43,"lng":-60.18},{"name":"Venado Tuerto","lat":-33.7496,"lng":-61.97},{"name":"Vera","lat":-29.4662,"lng":-60.2166},{"name":"Victoria","lat":-32.61,"lng":-60.18},{"name":"Victorica","lat":-36.2163,"lng":-65.45},{"name":"Viedma","lat":-40.8,"lng":-63},{"name":"Villa Angela","lat":-27.5833,"lng":-60.7167},{"name":"Villa Carlos Paz","lat":-31.42,"lng":-64.5},{"name":"Villa Constitucion","lat":-33.23,"lng":-60.35},{"name":"Villa Maria","lat":-32.41,"lng":-63.26},{"name":"Villa Rumipal","lat":-32.1833,"lng":-64.4833},{"name":"Villalonga","lat":-39.8829,"lng":-62.5833},{"name":"Zapala","lat":-38.9,"lng":-70.0667},{"name":"Zarate","lat":-34.0896,"lng":-59.04}],"Armenia":[{"name":"Armavir","lat":40.1545,"lng":44.0382},{"name":"Artashat","lat":39.9539,"lng":44.5506},{"name":"Ashtarak","lat":40.3017,"lng":44.3592},{"name":"Gavarr","lat":40.3589,"lng":45.1267},{"name":"Gyumri","lat":40.7894,"lng":43.8475},{"name":"Hrazdan","lat":40.4941,"lng":44.7602},{"name":"Ijevan","lat":40.8788,"lng":45.1485},{"name":"Ijevan","lat":40.8756,"lng":45.1492},{"name":"Kapan","lat":39.2075,"lng":46.4058},{"name":"Vanadzor","lat":40.8128,"lng":44.4883},{"name":"Yeghegnadzor","lat":39.7611,"lng":45.3333},{"name":"Yerevan","lat":40.1812,"lng":44.5136}],"Aruba":[{"name":"Oranjestad","lat":12.5304,"lng":-70.029}],"Australia":[{"name":"Adelaide","lat":-34.935,"lng":138.6},{"name":"Adelaide River","lat":-13.2495,"lng":131.1},{"name":"Albany","lat":-35.0169,"lng":117.8916},{"name":"Albury","lat":-36.06,"lng":146.92},{"name":"Alice Springs","lat":-23.701,"lng":133.88},{"name":"Andamooka","lat":-30.431,"lng":137.1656},{"name":"Ararat","lat":-37.2795,"lng":142.91},{"name":"Armidale","lat":-30.5123,"lng":151.6675},{"name":"Atherton","lat":-17.2703,"lng":145.4694},{"name":"Ayr","lat":-19.5702,"lng":147.3995},{"name":"Bairnsdale","lat":-37.8296,"lng":147.61},{"name":"Ballarat","lat":-37.5596,"lng":143.84},{"name":"Ballina","lat":-28.8614,"lng":153.568},{"name":"Barcaldine","lat":-23.5662,"lng":145.2834},{"name":"Batemans Bay","lat":-35.6896,"lng":150.2073},{"name":"Bathurst","lat":-33.4196,"lng":149.57},{"name":"Bedourie","lat":-24.3496,"lng":139.4666},{"name":"Bendigo","lat":-36.76,"lng":144.28},{"name":"Berri","lat":-34.2829,"lng":140.6},{"name":"Bicheno","lat":-41.8784,"lng":148.2886},{"name":"Biloela","lat":-24.3936,"lng":150.4961},{"name":"Birdsville","lat":-25.8996,"lng":139.3666},{"name":"Bongaree","lat":-27.0787,"lng":153.1509},{"name":"Bordertown","lat":-36.3162,"lng":140.7666},{"name":"Boulia","lat":-22.8996,"lng":139.9},{"name":"Bourke","lat":-30.1,"lng":145.9333},{"name":"Bowen","lat":-20.0013,"lng":148.2087},{"name":"Brisbane","lat":-27.455,"lng":153.0351},{"name":"Broken Hill","lat":-31.95,"lng":141.4331},{"name":"Broome","lat":-17.9618,"lng":122.2308},{"name":"Bunbury","lat":-33.3443,"lng":115.6502},{"name":"Bundaberg","lat":-24.8791,"lng":152.3509},{"name":"Burketown","lat":-17.7161,"lng":139.5666},{"name":"Burnie","lat":-41.0666,"lng":145.9167},{"name":"Busselton","lat":-33.6564,"lng":115.3487},{"name":"Byron Bay","lat":-28.6565,"lng":153.6129},{"name":"Caboolture","lat":-27.083,"lng":152.95},{"name":"Cairns","lat":-16.8878,"lng":145.7633},{"name":"Caloundra","lat":-26.8,"lng":153.1333},{"name":"Camooweal","lat":-19.9167,"lng":138.1167},{"name":"Canberra","lat":-35.283,"lng":149.129},{"name":"Carnarvon","lat":-24.8998,"lng":113.6501},{"name":"Ceduna","lat":-32.0991,"lng":133.6623},{"name":"Central Coast","lat":-33.42,"lng":151.3},{"name":"Charleville","lat":-26.4,"lng":146.25},{"name":"Charters Towers","lat":-20.0809,"lng":146.2587},{"name":"Clare","lat":-33.8329,"lng":138.6},{"name":"Cloncurry","lat":-20.7,"lng":140.5},{"name":"Cobram","lat":-35.9196,"lng":145.65},{"name":"Coffs Harbour","lat":-30.3071,"lng":153.1123},{"name":"Colac","lat":-38.3395,"lng":143.58},{"name":"Cooma","lat":-36.2396,"lng":149.12},{"name":"Cowell","lat":-33.6829,"lng":136.9166},{"name":"Cowra","lat":-33.8296,"lng":148.68},{"name":"Cranbourne","lat":-38.0996,"lng":145.2834},{"name":"Dalby","lat":-27.1939,"lng":151.2657},{"name":"Darwin","lat":-12.4254,"lng":130.85},{"name":"Deniliquin","lat":-35.5296,"lng":144.95},{"name":"Devonport","lat":-41.1927,"lng":146.3311},{"name":"Dubbo","lat":-32.26,"lng":148.5973},{"name":"Echuca","lat":-36.1296,"lng":144.75},{"name":"Eidsvold","lat":-25.3662,"lng":151.1333},{"name":"Emerald","lat":-23.5122,"lng":148.1673},{"name":"Esperance","lat":-33.8573,"lng":121.8889},{"name":"Exmouth","lat":-21.9311,"lng":114.1233},{"name":"Forbes","lat":-33.3896,"lng":148.02},{"name":"Forster-Tuncurry","lat":-32.1931,"lng":152.5266},{"name":"Gawler","lat":-34.6074,"lng":138.7264},{"name":"Geelong","lat":-38.1675,"lng":144.3956},{"name":"Georgetown","lat":-18.3,"lng":143.5333},{"name":"Geraldton","lat":-28.7666,"lng":114.6},{"name":"Gingin","lat":-31.3496,"lng":115.9},{"name":"Gladstone","lat":-23.8533,"lng":151.2467},{"name":"Gold Coast","lat":-28.0815,"lng":153.4482},{"name":"Goondiwindi","lat":-28.5548,"lng":150.3253},{"name":"Goulburn","lat":-34.7496,"lng":149.7102},{"name":"Grafton","lat":-29.712,"lng":152.9377},{"name":"Griffith","lat":-34.29,"lng":146.04},{"name":"Gunnedah","lat":-30.987,"lng":150.2623},{"name":"Gympie","lat":-26.1886,"lng":152.6709},{"name":"Halls Creek","lat":-18.2667,"lng":127.7667},{"name":"Hamilton","lat":-37.7312,"lng":142.0234},{"name":"Hervey Bay","lat":-25.2887,"lng":152.8409},{"name":"Hobart","lat":-42.85,"lng":147.295},{"name":"Horsham","lat":-36.7096,"lng":142.19},{"name":"Hughenden","lat":-20.85,"lng":144.2},{"name":"Ingham","lat":-18.6496,"lng":146.1666},{"name":"Innisfail","lat":-17.5313,"lng":146.0387},{"name":"Inverell","lat":-29.7668,"lng":151.1126},{"name":"Ivanhoe","lat":-32.8996,"lng":144.3},{"name":"Kalbarri","lat":-27.6662,"lng":114.1667},{"name":"Kalgoorlie","lat":-30.7354,"lng":121.46},{"name":"Karratha","lat":-20.7304,"lng":116.87},{"name":"Karumba","lat":-17.4833,"lng":140.8334},{"name":"Katanning","lat":-33.6996,"lng":117.5501},{"name":"Katherine","lat":-14.4666,"lng":132.2666},{"name":"Katoomba","lat":-33.7069,"lng":150.32},{"name":"Kempsey","lat":-31.0874,"lng":152.822},{"name":"Kiama","lat":-34.7096,"lng":150.84},{"name":"Kimba","lat":-33.1496,"lng":136.4334},{"name":"Kingaroy","lat":-26.539,"lng":151.8406},{"name":"Kingoonya","lat":-30.8996,"lng":135.3},{"name":"Kingston","lat":-42.9911,"lng":147.3084},{"name":"Kingston South East","lat":-36.8328,"lng":139.8501},{"name":"Kununurra","lat":-15.7666,"lng":128.7333},{"name":"Kwinana","lat":-32.2394,"lng":115.7702},{"name":"Launceston","lat":-41.4498,"lng":147.1302},{"name":"Laverton","lat":-28.627,"lng":122.404},{"name":"Leeton","lat":-34.5449,"lng":146.3973},{"name":"Leonara","lat":-28.8815,"lng":121.328},{"name":"Lismore","lat":-28.8167,"lng":153.2931},{"name":"Lithgow","lat":-33.4961,"lng":150.1528},{"name":"Longreach","lat":-23.4496,"lng":144.25},{"name":"Mackay","lat":-21.1439,"lng":149.15},{"name":"Maitland","lat":-32.721,"lng":151.555},{"name":"Mandurah","lat":-32.5235,"lng":115.7471},{"name":"Manjimup","lat":-34.2333,"lng":116.15},{"name":"Maryborough","lat":-37.0496,"lng":143.73},{"name":"Maryborough","lat":-25.5491,"lng":152.7209},{"name":"McMinns Lagoon","lat":-12.5329,"lng":131.05},{"name":"Meekatharra","lat":-26.6,"lng":118.4833},{"name":"Melbourne","lat":-37.82,"lng":144.975},{"name":"Melton","lat":-37.6895,"lng":144.57},{"name":"Meningie","lat":-35.6995,"lng":139.3333},{"name":"Merimbula","lat":-36.8996,"lng":149.9},{"name":"Merredin","lat":-31.4828,"lng":118.2667},{"name":"Mildura","lat":-34.185,"lng":142.1514},{"name":"Moranbah","lat":-22.0016,"lng":148.038},{"name":"Morawa","lat":-29.2163,"lng":116},{"name":"Moree","lat":-29.4699,"lng":149.8301},{"name":"Mount Barker","lat":-34.6328,"lng":117.6666},{"name":"Mount Gambier","lat":-37.8313,"lng":140.765},{"name":"Mount Isa","lat":-20.7239,"lng":139.49},{"name":"Mount Magnet","lat":-28.0662,"lng":117.8167},{"name":"Mudgee","lat":-32.5896,"lng":149.5801},{"name":"Murray Bridge","lat":-35.1296,"lng":139.26},{"name":"Muswellbrook","lat":-32.2696,"lng":150.89},{"name":"Narrabri","lat":-30.3319,"lng":149.7874},{"name":"Narrogin","lat":-32.9329,"lng":117.1666},{"name":"Newcastle","lat":-32.8453,"lng":151.815},{"name":"Newman","lat":-23.3666,"lng":119.7333},{"name":"Norseman","lat":-32.2,"lng":121.7666},{"name":"Northam","lat":-31.6566,"lng":116.6534},{"name":"Nowra","lat":-34.8828,"lng":150.6},{"name":"Oatlands","lat":-42.2996,"lng":147.3666},{"name":"Onslow","lat":-21.6576,"lng":115.0963},{"name":"Orange","lat":-33.28,"lng":149.1},{"name":"Ouyen","lat":-35.0662,"lng":142.3167},{"name":"Pannawonica","lat":-21.6366,"lng":116.325},{"name":"Parkes","lat":-33.1296,"lng":148.17},{"name":"Penola","lat":-37.383,"lng":140.8167},{"name":"Perth","lat":-31.955,"lng":115.84},{"name":"Peterborough","lat":-32.9662,"lng":138.8333},{"name":"Pine Creek","lat":-13.8162,"lng":131.8167},{"name":"Port Augusta","lat":-32.49,"lng":137.77},{"name":"Port Denison","lat":-29.2828,"lng":114.9166},{"name":"Port Douglas","lat":-16.4846,"lng":145.4587},{"name":"Port Hedland","lat":-20.3104,"lng":118.606},{"name":"Port Lincoln","lat":-34.7332,"lng":135.8666},{"name":"Port Macquarie","lat":-31.445,"lng":152.9187},{"name":"Port Pirie","lat":-33.1911,"lng":137.99},{"name":"Portland","lat":-38.34,"lng":141.59},{"name":"Proserpine","lat":-20.4162,"lng":148.5835},{"name":"Queanbeyan","lat":-35.3546,"lng":149.2113},{"name":"Queenstown","lat":-42.0829,"lng":145.55},{"name":"Quilpie","lat":-26.6166,"lng":144.25},{"name":"Ravensthorpe","lat":-33.5829,"lng":120.0333},{"name":"Richmond","lat":-33.5995,"lng":150.74},{"name":"Richmond","lat":-20.7163,"lng":143.1333},{"name":"Rockhampton","lat":-23.3639,"lng":150.52},{"name":"Roebourne","lat":-20.7829,"lng":117.1333},{"name":"Roma","lat":-26.5594,"lng":148.7907},{"name":"Sale","lat":-38.1096,"lng":147.06},{"name":"Scone","lat":-32.0796,"lng":150.8501},{"name":"Scottsdale","lat":-41.1495,"lng":147.5167},{"name":"Seymour","lat":-37.0342,"lng":145.1273},{"name":"Shepparton","lat":-36.3746,"lng":145.3914},{"name":"Singleton","lat":-32.5695,"lng":151.16},{"name":"Smithton","lat":-40.8329,"lng":145.1167},{"name":"Southern Cross","lat":-31.2161,"lng":119.3167},{"name":"Stawell","lat":-37.0596,"lng":142.76},{"name":"Streaky Bay","lat":-32.8119,"lng":134.2149},{"name":"Sunbury","lat":-37.5696,"lng":144.71},{"name":"Swan Hill","lat":-35.3396,"lng":143.54},{"name":"Sydney","lat":-33.92,"lng":151.1852},{"name":"Tamworth","lat":-31.1026,"lng":150.9171},{"name":"Taree","lat":-31.8976,"lng":152.4618},{"name":"Thargomindah","lat":-28,"lng":143.8167},{"name":"Theodore","lat":-24.9495,"lng":150.0833},{"name":"Three Springs","lat":-29.5333,"lng":115.75},{"name":"Tom Price","lat":-22.6935,"lng":117.7931},{"name":"Toowoomba","lat":-27.5645,"lng":151.9555},{"name":"Townsville","lat":-19.25,"lng":146.77},{"name":"Traralgon","lat":-38.1996,"lng":146.53},{"name":"Tumby Bay","lat":-34.3829,"lng":136.0833},{"name":"Tumut","lat":-35.3096,"lng":148.22},{"name":"Tweed Heads","lat":-28.1826,"lng":153.5466},{"name":"Ulladulla","lat":-35.3495,"lng":150.47},{"name":"Victor Harbor","lat":-35.5596,"lng":138.6173},{"name":"Wagga Wagga","lat":-35.1222,"lng":147.34},{"name":"Wagin","lat":-33.2996,"lng":117.35},{"name":"Wallaroo","lat":-33.9329,"lng":137.6333},{"name":"Wangaratta","lat":-36.36,"lng":146.3},{"name":"Warrnambool","lat":-38.38,"lng":142.47},{"name":"Warwick","lat":-28.2292,"lng":152.0203},{"name":"Weipa","lat":-12.6666,"lng":141.8666},{"name":"Whyalla","lat":-33.025,"lng":137.5614},{"name":"Wilcannia","lat":-31.5662,"lng":143.3833},{"name":"Windorah","lat":-25.4332,"lng":142.6502},{"name":"Winton","lat":-22.3996,"lng":143.0333},{"name":"Wollongong","lat":-34.4154,"lng":150.89},{"name":"Wonthaggi","lat":-38.6095,"lng":145.59},{"name":"Woomera","lat":-31.1496,"lng":136.8},{"name":"Wyndham","lat":-15.374,"lng":128.3601},{"name":"Yamba","lat":-29.423,"lng":153.3533},{"name":"Yeppoon","lat":-23.1329,"lng":150.7567},{"name":"Young","lat":-34.3096,"lng":148.29},{"name":"Yulara","lat":-25.2405,"lng":130.9889}],"Austria":[{"name":"Bregenz","lat":47.5167,"lng":9.7667},{"name":"Eisenstadt","lat":47.8333,"lng":16.5333},{"name":"Graz","lat":47.0778,"lng":15.41},{"name":"Innsbruck","lat":47.2804,"lng":11.41},{"name":"Klagenfurt","lat":46.6203,"lng":14.31},{"name":"Linz","lat":48.3192,"lng":14.2888},{"name":"Salzburg","lat":47.8105,"lng":13.04},{"name":"Sankt Polten","lat":48.2,"lng":15.6333},{"name":"Vienna","lat":48.2,"lng":16.3666},{"name":"Wiener Neustadt","lat":47.816,"lng":16.25}],"Azerbaijan":[{"name":"Agcabadi","lat":40.0501,"lng":47.4594},{"name":"Agdam","lat":39.991,"lng":46.9274},{"name":"Agdam","lat":40.9053,"lng":45.5564},{"name":"Agdas","lat":40.647,"lng":47.4738},{"name":"Agstafa","lat":41.1148,"lng":45.4468},{"name":"Agsu","lat":40.5692,"lng":48.3965},{"name":"Ali Bayramli","lat":39.9323,"lng":48.9203},{"name":"Astara","lat":38.456,"lng":48.875},{"name":"Baku","lat":40.3953,"lng":49.8622},{"name":"Balakan","lat":41.7263,"lng":46.4048},{"name":"Barda","lat":40.3758,"lng":47.1262},{"name":"Beylaqan","lat":39.7756,"lng":47.6186},{"name":"Bilasuvar","lat":39.4583,"lng":48.545},{"name":"Cabrayil","lat":39.3992,"lng":47.0283},{"name":"Calilabad","lat":39.2096,"lng":48.4919},{"name":"Daskasan","lat":40.5239,"lng":46.0819},{"name":"Davaci","lat":41.2012,"lng":48.9871},{"name":"Fuzuli","lat":39.6009,"lng":47.1453},{"name":"Gadabay","lat":40.5656,"lng":45.8161},{"name":"Ganca","lat":40.685,"lng":46.35},{"name":"Goranboy","lat":40.6103,"lng":46.7897},{"name":"Goycay","lat":40.6534,"lng":47.7406},{"name":"Goygol","lat":40.5858,"lng":46.3189},{"name":"Haciqabul","lat":40.0387,"lng":48.9429},{"name":"Heydarabad","lat":39.7229,"lng":44.8485},{"name":"Imisli","lat":39.8724,"lng":48.0649},{"name":"Ismayilli","lat":40.7848,"lng":48.1514},{"name":"Kalbacar","lat":40.1098,"lng":46.0445},{"name":"Kapan","lat":39.2015,"lng":46.415},{"name":"Kurdamir","lat":40.3453,"lng":48.1508},{"name":"Lacin","lat":39.6434,"lng":46.5462},{"name":"Lankaran","lat":38.754,"lng":48.8511},{"name":"Lerik","lat":38.7739,"lng":48.415},{"name":"Masalli","lat":39.0278,"lng":48.6703},{"name":"Mingacevir","lat":40.7639,"lng":47.0595},{"name":"Naftalan","lat":40.5082,"lng":46.8203},{"name":"Naxcivan","lat":39.2092,"lng":45.4122},{"name":"Neftcala","lat":39.3768,"lng":49.247},{"name":"Oguz","lat":41.0708,"lng":47.4583},{"name":"Ordubad","lat":38.9096,"lng":46.0227},{"name":"Qabala","lat":40.9825,"lng":47.8491},{"name":"Qabala","lat":40.9814,"lng":47.8458},{"name":"Qax","lat":41.4183,"lng":46.9204},{"name":"Qazax","lat":41.0925,"lng":45.3656},{"name":"Qivraq","lat":39.3994,"lng":45.1151},{"name":"Qobustan","lat":40.5336,"lng":48.9282},{"name":"Quba","lat":41.3611,"lng":48.5134},{"name":"Qubadli","lat":39.3444,"lng":46.5818},{"name":"Qusar","lat":41.4275,"lng":48.4302},{"name":"Saatli","lat":39.9321,"lng":48.3689},{"name":"Sabirabad","lat":40.0087,"lng":48.477},{"name":"Sahbuz","lat":39.4072,"lng":45.5739},{"name":"Saki","lat":41.1923,"lng":47.1705},{"name":"Salyan","lat":39.5962,"lng":48.9848},{"name":"Samkir","lat":40.8297,"lng":46.0178},{"name":"Samux","lat":40.7649,"lng":46.4087},{"name":"Sarur","lat":39.5544,"lng":44.9826},{"name":"Siyazan","lat":41.0781,"lng":49.1156},{"name":"Stepanakert","lat":39.8156,"lng":46.752},{"name":"Sumqayt","lat":40.58,"lng":49.63},{"name":"Susa","lat":39.7601,"lng":46.7499},{"name":"Tartar","lat":40.342,"lng":46.9316},{"name":"Tovuz","lat":40.9922,"lng":45.6289},{"name":"Ucar","lat":40.5121,"lng":47.6519},{"name":"Xacmaz","lat":41.4643,"lng":48.8057},{"name":"Xirdalan","lat":40.4481,"lng":49.755},{"name":"Xizi","lat":40.9085,"lng":49.0748},{"name":"Xocali","lat":39.913,"lng":46.7903},{"name":"Xocavand","lat":39.795,"lng":47.1117},{"name":"Yardimli","lat":38.9077,"lng":48.2405},{"name":"Yevlax","lat":40.6172,"lng":47.15},{"name":"Zangilan","lat":39.0837,"lng":46.6599},{"name":"Zaqatala","lat":41.6316,"lng":46.6448},{"name":"Zardab","lat":40.2182,"lng":47.7103}],"Bahamas, The":[{"name":"Freeport","lat":26.5333,"lng":-78.7},{"name":"Nassau","lat":25.0834,"lng":-77.35}],"Bahrain":[{"name":"Manama","lat":26.2361,"lng":50.5831}],"Bangladesh":[{"name":"Barisal","lat":22.7004,"lng":90.375},{"name":"Chittagong","lat":22.33,"lng":91.8},{"name":"Comilla","lat":23.4704,"lng":91.17},{"name":"Dhaka","lat":23.7231,"lng":90.4086},{"name":"Jamalpur","lat":24.9004,"lng":89.95},{"name":"Jessore","lat":23.1704,"lng":89.2},{"name":"Khulna","lat":22.84,"lng":89.56},{"name":"Mymensingh","lat":24.7504,"lng":90.38},{"name":"Narayanganj","lat":23.6204,"lng":90.5},{"name":"Nawabganj","lat":24.5804,"lng":88.35},{"name":"Pabna","lat":24.0004,"lng":89.25},{"name":"Rajshahi","lat":24.375,"lng":88.605},{"name":"Rangpur","lat":25.75,"lng":89.28},{"name":"Saidpur","lat":25.8004,"lng":89},{"name":"Sylhet","lat":24.9036,"lng":91.8736},{"name":"Tangail","lat":24.25,"lng":89.92}],"Barbados":[{"name":"Bridgetown","lat":13.102,"lng":-59.6165}],"Belarus":[{"name":"Babruysk","lat":53.1266,"lng":29.1928},{"name":"Baranavichy","lat":53.1368,"lng":26.0134},{"name":"Barysaw","lat":54.226,"lng":28.4922},{"name":"Brest","lat":52.1,"lng":23.7},{"name":"Homyel","lat":52.43,"lng":31},{"name":"Hrodna","lat":53.6779,"lng":23.8341},{"name":"Lida","lat":53.8885,"lng":25.2846},{"name":"Mahilyow","lat":53.8985,"lng":30.3247},{"name":"Maladzyechna","lat":54.3188,"lng":26.8653},{"name":"Mazyr","lat":52.046,"lng":29.2722},{"name":"Minsk","lat":53.9,"lng":27.5666},{"name":"Orsha","lat":54.5153,"lng":30.4215},{"name":"Pinsk","lat":52.1279,"lng":26.0941},{"name":"Polatsk","lat":55.4894,"lng":28.786},{"name":"Vitsyebsk","lat":55.1887,"lng":30.1853}],"Belgium":[{"name":"Antwerpen","lat":51.2204,"lng":4.415},{"name":"Arlon","lat":49.6833,"lng":5.8167},{"name":"Brugge","lat":51.2204,"lng":3.23},{"name":"Brussels","lat":50.8333,"lng":4.3333},{"name":"Charleroi","lat":50.4204,"lng":4.45},{"name":"Gent","lat":51.03,"lng":3.7},{"name":"Hasselt","lat":50.964,"lng":5.484},{"name":"Liege","lat":50.63,"lng":5.58},{"name":"Mons","lat":50.446,"lng":3.939},{"name":"Namur","lat":50.4704,"lng":4.87}],"Belize":[{"name":"Belize City","lat":17.4987,"lng":-88.1884},{"name":"Belmopan","lat":17.252,"lng":-88.7671},{"name":"Corozal","lat":18.398,"lng":-88.388},{"name":"Dangriga","lat":16.97,"lng":-88.22},{"name":"El Cayo","lat":17.156,"lng":-89.061},{"name":"Orange Walk","lat":18.0904,"lng":-88.56},{"name":"Punta Gorda","lat":16.1003,"lng":-88.81}],"Benin":[{"name":"Abomey","lat":7.1904,"lng":1.99},{"name":"Cotonou","lat":6.4,"lng":2.52},{"name":"Djougou","lat":9.7004,"lng":1.68},{"name":"Dogbo","lat":6.8167,"lng":1.7833},{"name":"Kandi","lat":11.1304,"lng":2.94},{"name":"Lokossa","lat":6.615,"lng":1.715},{"name":"Natitingou","lat":10.3204,"lng":1.39},{"name":"Ouidah","lat":6.3604,"lng":2.09},{"name":"Parakou","lat":9.34,"lng":2.62},{"name":"Porto-Novo","lat":6.4833,"lng":2.6166},{"name":"Sakete","lat":6.7362,"lng":2.6587},{"name":"Savalou","lat":7.9281,"lng":1.9756}],"Bermuda":[{"name":"Hamilton","lat":32.2942,"lng":-64.7839}],"Bhutan":[{"name":"Daga","lat":27.0753,"lng":89.8769},{"name":"Gasa","lat":27.9067,"lng":89.7304},{"name":"Haa","lat":27.3685,"lng":89.2918},{"name":"Jakar","lat":27.5492,"lng":90.7525},{"name":"Lhuentse","lat":27.6679,"lng":91.1839},{"name":"Mongar","lat":27.2747,"lng":91.2396},{"name":"Paro","lat":27.3833,"lng":89.5167},{"name":"Pemagatshel","lat":27.038,"lng":91.4031},{"name":"Punakha","lat":27.6333,"lng":89.8333},{"name":"Samdrup Jongkhar","lat":26.8007,"lng":91.5052},{"name":"Samtse","lat":26.899,"lng":89.0995},{"name":"Sarpang","lat":26.8639,"lng":90.2674},{"name":"Thimphu","lat":27.473,"lng":89.639},{"name":"Trashi Yangtse","lat":27.6116,"lng":91.498},{"name":"Trashigang","lat":27.3331,"lng":91.5542},{"name":"Trongsa","lat":27.5026,"lng":90.5072},{"name":"Tsimasham","lat":27.0989,"lng":89.536},{"name":"Tsirang","lat":27.0219,"lng":90.1229},{"name":"Wangdue Prodrang","lat":27.4333,"lng":89.9167},{"name":"Zhemgang","lat":27.2169,"lng":90.6579}],"Bolivia":[{"name":"Achacachi","lat":-16.0833,"lng":-68.6666},{"name":"Aiquile","lat":-18.1895,"lng":-65.18},{"name":"Apolo","lat":-14.7196,"lng":-68.42},{"name":"Ascension","lat":-15.6996,"lng":-63.08},{"name":"Baures","lat":-13.58,"lng":-63.5801},{"name":"Bermejo","lat":-22.7296,"lng":-64.35},{"name":"Betanzos","lat":-19.56,"lng":-65.45},{"name":"Camargo","lat":-20.6396,"lng":-65.21},{"name":"Camiri","lat":-20.05,"lng":-63.52},{"name":"Challapata","lat":-18.8996,"lng":-66.78},{"name":"Charagua","lat":-19.7996,"lng":-63.22},{"name":"Charana","lat":-17.5996,"lng":-69.4666},{"name":"Cliza","lat":-17.59,"lng":-65.93},{"name":"Cobija","lat":-11.0333,"lng":-68.7333},{"name":"Cochabamba","lat":-17.41,"lng":-66.17},{"name":"Coro Coro","lat":-17.1696,"lng":-68.45},{"name":"Coroico","lat":-16.1896,"lng":-67.72},{"name":"Cuevo","lat":-20.45,"lng":-63.53},{"name":"Entre Rios","lat":-21.53,"lng":-64.19},{"name":"Guayaramerin","lat":-10.83,"lng":-65.41},{"name":"La Paz","lat":-16.498,"lng":-68.15},{"name":"Llallagua","lat":-18.42,"lng":-66.64},{"name":"Llica","lat":-19.8496,"lng":-68.25},{"name":"Magdalena","lat":-13.2601,"lng":-64.0528},{"name":"Montero","lat":-17.3496,"lng":-63.26},{"name":"Oruro","lat":-17.98,"lng":-67.13},{"name":"Padilla","lat":-19.2996,"lng":-64.31},{"name":"Piso Firme","lat":-13.683,"lng":-61.8666},{"name":"Portachuelo","lat":-17.36,"lng":-63.4},{"name":"Potosi","lat":-19.5696,"lng":-65.75},{"name":"Puerto Acosta","lat":-15.4996,"lng":-69.1667},{"name":"Puerto Heath","lat":-12.4996,"lng":-68.6666},{"name":"Puerto Quijarro","lat":-17.7796,"lng":-57.77},{"name":"Puerto Suarez","lat":-18.9496,"lng":-57.85},{"name":"Puerto Villarroel","lat":-16.87,"lng":-64.78},{"name":"Punata","lat":-17.55,"lng":-65.84},{"name":"Quillacollo","lat":-17.4,"lng":-66.28},{"name":"Quime","lat":-16.98,"lng":-67.22},{"name":"Reyes","lat":-14.3096,"lng":-67.37},{"name":"Riberalta","lat":-10.983,"lng":-66.1},{"name":"Robore","lat":-18.3295,"lng":-59.76},{"name":"Rurrenabaque","lat":-14.46,"lng":-67.56},{"name":"Sabaya","lat":-19.0163,"lng":-68.3833},{"name":"Samaipata","lat":-18.18,"lng":-63.77},{"name":"San Borja","lat":-14.8196,"lng":-66.85},{"name":"San Carlos","lat":-17.4,"lng":-63.73},{"name":"San Ignacio","lat":-16.3696,"lng":-60.96},{"name":"San Javier","lat":-16.2896,"lng":-62.5},{"name":"San Jose","lat":-17.85,"lng":-60.78},{"name":"San Lorenzo","lat":-21.4799,"lng":-64.77},{"name":"San Matias","lat":-16.36,"lng":-58.42},{"name":"San Rafael","lat":-16.7795,"lng":-60.68},{"name":"San Ramon","lat":-13.2896,"lng":-64.71},{"name":"Santa Ana","lat":-13.76,"lng":-65.58},{"name":"Santa Cruz","lat":-17.7539,"lng":-63.226},{"name":"Santa Cruz de la Sierra","lat":-17.8,"lng":-63.1667},{"name":"Sica Sica","lat":-17.33,"lng":-67.73},{"name":"Sorata","lat":-15.79,"lng":-68.6601},{"name":"Sucre","lat":-19.041,"lng":-65.2595},{"name":"Tarabuco","lat":-19.18,"lng":-64.9199},{"name":"Tarija","lat":-21.5167,"lng":-64.75},{"name":"Trinidad","lat":-14.8334,"lng":-64.9},{"name":"Tupiza","lat":-21.4396,"lng":-65.72},{"name":"Uncia","lat":-18.47,"lng":-66.57},{"name":"Uyuni","lat":-20.46,"lng":-66.83},{"name":"Vallegrande","lat":-18.4896,"lng":-64.11},{"name":"Viacha","lat":-16.65,"lng":-68.3},{"name":"Villa Martin","lat":-20.7666,"lng":-67.7833},{"name":"Villamontes","lat":-21.2496,"lng":-63.5},{"name":"Villazon","lat":-22.0796,"lng":-65.6}],"Bosnia And Herzegovina":[{"name":"Banja Luka","lat":44.7804,"lng":17.18},{"name":"Brcko","lat":44.87,"lng":18.8101},{"name":"Mostar","lat":43.3505,"lng":17.82},{"name":"Prijedor","lat":44.9804,"lng":16.7},{"name":"Sarajevo","lat":43.85,"lng":18.383},{"name":"Tuzla","lat":44.5505,"lng":18.68},{"name":"Zenica","lat":44.22,"lng":17.92}],"Botswana":[{"name":"Francistown","lat":-21.17,"lng":27.5},{"name":"Gaborone","lat":-24.6463,"lng":25.9119},{"name":"Ghanzi","lat":-21.6996,"lng":21.64},{"name":"Jwaneng","lat":-24.6017,"lng":24.7281},{"name":"Kanye","lat":-24.9696,"lng":25.34},{"name":"Kasane","lat":-17.8096,"lng":25.15},{"name":"Lehututu","lat":-23.9696,"lng":21.87},{"name":"Lobatse","lat":-25.2196,"lng":25.68},{"name":"Lokhwabe","lat":-24.1696,"lng":21.83},{"name":"Mahalapye","lat":-23.1,"lng":26.82},{"name":"Masunga","lat":-20.6245,"lng":27.4488},{"name":"Maun","lat":-19.9896,"lng":23.42},{"name":"Mochudi","lat":-24.377,"lng":26.152},{"name":"Mohembo","lat":-18.2996,"lng":21.8},{"name":"Molepolole","lat":-24.4,"lng":25.51},{"name":"Mopipi","lat":-21.1795,"lng":24.88},{"name":"Nata","lat":-20.2095,"lng":26.19},{"name":"Nokaneng","lat":-19.6696,"lng":22.27},{"name":"Palapye","lat":-22.5596,"lng":27.13},{"name":"Ramotswa","lat":-24.8716,"lng":25.8699},{"name":"Selibe Phikwe","lat":-21.9758,"lng":27.8347},{"name":"Serowe","lat":-22.39,"lng":26.71},{"name":"Sowa Town","lat":-20.5636,"lng":26.2244},{"name":"Tsau","lat":-20.1596,"lng":22.46},{"name":"Tshabong","lat":-26.0095,"lng":22.4}],"Brazil":[{"name":"Abaetetuba","lat":-1.7245,"lng":-48.8849},{"name":"Abuna","lat":-9.6954,"lng":-65.3597},{"name":"Acarau","lat":-2.8896,"lng":-40.12},{"name":"Acu","lat":-5.5796,"lng":-36.9101},{"name":"Alagoinhas","lat":-12.14,"lng":-38.43},{"name":"Alenquer","lat":-1.9396,"lng":-54.79},{"name":"Almenara","lat":-16.17,"lng":-40.7},{"name":"Alta Floresta","lat":-9.9,"lng":-55.91},{"name":"Altamira","lat":-3.1996,"lng":-52.21},{"name":"Alvorada","lat":-12.47,"lng":-49.082},{"name":"Amapa","lat":2.05,"lng":-50.8},{"name":"Americana","lat":-22.7499,"lng":-47.33},{"name":"Anapolis","lat":-16.3196,"lng":-48.96},{"name":"Andradina","lat":-20.9096,"lng":-51.3799},{"name":"Apodi","lat":-5.65,"lng":-37.8},{"name":"Apucarana","lat":-23.55,"lng":-51.47},{"name":"Aquidauana","lat":-20.4696,"lng":-55.79},{"name":"Aracaju","lat":-10.9,"lng":-37.12},{"name":"Aracati","lat":-4.56,"lng":-37.77},{"name":"Aracatuba","lat":-21.21,"lng":-50.45},{"name":"Aracuai","lat":-16.8596,"lng":-42.0699},{"name":"Araguaina","lat":-7.19,"lng":-48.21},{"name":"Araguari","lat":-18.64,"lng":-48.2},{"name":"Arapiraca","lat":-9.75,"lng":-36.67},{"name":"Arapongas","lat":-23.41,"lng":-51.43},{"name":"Ararangua","lat":-28.94,"lng":-49.5},{"name":"Araxa","lat":-19.5796,"lng":-46.95},{"name":"Arcoverde","lat":-8.42,"lng":-37.07},{"name":"Aripuana","lat":-9.17,"lng":-60.64},{"name":"Ariquemes","lat":-9.9396,"lng":-63.08},{"name":"Assis","lat":-22.6596,"lng":-50.42},{"name":"Avare","lat":-23.11,"lng":-48.93},{"name":"Bacabal","lat":-4.23,"lng":-44.8},{"name":"Bage","lat":-31.32,"lng":-54.1},{"name":"Balsas","lat":-7.52,"lng":-46.05},{"name":"Barbacena","lat":-21.22,"lng":-43.77},{"name":"Barcelos","lat":-0.975,"lng":-62.9239},{"name":"Barra do Bugres","lat":-15.0696,"lng":-57.19},{"name":"Barra do Corda","lat":-5.5096,"lng":-45.26},{"name":"Barra do Garcas","lat":-15.8796,"lng":-52.26},{"name":"Barra Mansa","lat":-22.56,"lng":-44.17},{"name":"Barras","lat":-4.25,"lng":-42.3},{"name":"Barreiras","lat":-12.14,"lng":-45},{"name":"Barreiros","lat":-8.8296,"lng":-35.2},{"name":"Barretos","lat":-20.55,"lng":-48.58},{"name":"Batatais","lat":-20.89,"lng":-47.59},{"name":"Baturite","lat":-4.3296,"lng":-38.88},{"name":"Bauru","lat":-22.33,"lng":-49.08},{"name":"Belem","lat":-1.45,"lng":-48.48},{"name":"Belo Horizonte","lat":-19.915,"lng":-43.915},{"name":"Bento Goncalves","lat":-29.1695,"lng":-51.52},{"name":"Blumenau","lat":-26.92,"lng":-49.09},{"name":"Boa Vista","lat":2.8161,"lng":-60.666},{"name":"Bocaiuva","lat":-17.1096,"lng":-43.81},{"name":"Bom Jesus da Lapa","lat":-13.2495,"lng":-43.44},{"name":"Botucatu","lat":-22.8796,"lng":-48.45},{"name":"Braganca","lat":-1.05,"lng":-46.77},{"name":"Braganca Paulista","lat":-22.95,"lng":-46.55},{"name":"Brasilia","lat":-15.7833,"lng":-47.9161},{"name":"Breves","lat":-1.68,"lng":-50.49},{"name":"Brumado","lat":-14.21,"lng":-41.67},{"name":"Brusque","lat":-27.13,"lng":-48.93},{"name":"Cabo de Santo Agostinho","lat":-8.29,"lng":-35.03},{"name":"Cabo Frio","lat":-22.89,"lng":-42.04},{"name":"Cacador","lat":-26.77,"lng":-51.02},{"name":"Caceres","lat":-16.05,"lng":-57.51},{"name":"Cachoeira do Sul","lat":-30.03,"lng":-52.91},{"name":"Cachoeiro de Itapemirim","lat":-20.85,"lng":-41.13},{"name":"Caico","lat":-6.4596,"lng":-37.1},{"name":"Camaqua","lat":-30.8396,"lng":-51.81},{"name":"Cameta","lat":-2.2396,"lng":-49.51},{"name":"Camocim","lat":-2.9,"lng":-40.85},{"name":"Campina Grande","lat":-7.23,"lng":-35.88},{"name":"Campinas","lat":-22.9,"lng":-47.1},{"name":"Campo Belo","lat":-20.8896,"lng":-45.28},{"name":"Campo Grande","lat":-20.45,"lng":-54.6166},{"name":"Campo Maior","lat":-4.82,"lng":-42.18},{"name":"Campo Murao","lat":-24.0496,"lng":-52.42},{"name":"Campos","lat":-21.75,"lng":-41.32},{"name":"Canavieiras","lat":-15.64,"lng":-38.96},{"name":"Canela","lat":-29.36,"lng":-50.81},{"name":"Caninde","lat":-4.35,"lng":-39.31},{"name":"Canoas","lat":-29.92,"lng":-51.18},{"name":"Canoinhas","lat":-26.18,"lng":-50.4},{"name":"Capanema","lat":-1.19,"lng":-47.18},{"name":"Capitao Poco","lat":-1.7496,"lng":-47.09},{"name":"Caracarai","lat":1.8162,"lng":-61.1277},{"name":"Caratinga","lat":-19.79,"lng":-42.14},{"name":"Carazinho","lat":-28.29,"lng":-52.8},{"name":"Carpina","lat":-7.84,"lng":-35.26},{"name":"Caruaru","lat":-8.28,"lng":-35.98},{"name":"Cascavel","lat":-24.9596,"lng":-53.46},{"name":"Castanhal","lat":-1.2896,"lng":-47.93},{"name":"Castro","lat":-24.79,"lng":-50.01},{"name":"Catalao","lat":-18.18,"lng":-47.95},{"name":"Catanduva","lat":-21.14,"lng":-48.98},{"name":"Caxias","lat":-4.833,"lng":-43.35},{"name":"Caxias do Sul","lat":-29.18,"lng":-51.17},{"name":"Ceres","lat":-15.3033,"lng":-49.6052},{"name":"Chapadinha","lat":-3.7395,"lng":-43.36},{"name":"Coari","lat":-4.08,"lng":-63.13},{"name":"Codo","lat":-4.4796,"lng":-43.88},{"name":"Colider","lat":-10.8173,"lng":-55.4506},{"name":"Colinas","lat":-6.0395,"lng":-44.24},{"name":"Conceicao do Araguaia","lat":-8.25,"lng":-49.29},{"name":"Concordia","lat":-27.23,"lng":-52.03},{"name":"Conselheiro Lafaiete","lat":-20.67,"lng":-43.79},{"name":"Coroata","lat":-4.1296,"lng":-44.15},{"name":"Corumba","lat":-19.016,"lng":-57.65},{"name":"Crateus","lat":-5.1656,"lng":-40.666},{"name":"Crato","lat":-7.4639,"lng":-63.04},{"name":"Crato","lat":-7.2296,"lng":-39.42},{"name":"Criciuma","lat":-28.68,"lng":-49.39},{"name":"Cristalina","lat":-16.77,"lng":-47.61},{"name":"Cruzeiro do Sul","lat":-7.63,"lng":-72.67},{"name":"Cuiaba","lat":-15.5696,"lng":-56.085},{"name":"Curitiba","lat":-25.42,"lng":-49.32},{"name":"Curvelo","lat":-18.7596,"lng":-44.43},{"name":"Diamantina","lat":-18.24,"lng":-43.61},{"name":"Divinopolis","lat":-20.1495,"lng":-44.9},{"name":"Dourados","lat":-22.23,"lng":-54.81},{"name":"Eirunepe","lat":-6.66,"lng":-69.8738},{"name":"Erechim","lat":-27.63,"lng":-52.27},{"name":"Estancia","lat":-11.2696,"lng":-37.45},{"name":"Feira de Santana","lat":-12.25,"lng":-38.97},{"name":"Fernandopolis","lat":-20.2696,"lng":-50.26},{"name":"Floriano","lat":-6.7696,"lng":-43.03},{"name":"Florianopolis","lat":-27.58,"lng":-48.52},{"name":"Fonte Boa","lat":-2.5138,"lng":-66.0916},{"name":"Formiga","lat":-20.46,"lng":-45.43},{"name":"Formosa","lat":-15.5395,"lng":-47.34},{"name":"Fortaleza","lat":-3.75,"lng":-38.58},{"name":"Foz do Iguacu","lat":-25.5235,"lng":-54.53},{"name":"Franca","lat":-20.53,"lng":-47.39},{"name":"Frutal","lat":-20.03,"lng":-48.94},{"name":"Garanhuns","lat":-8.89,"lng":-36.5},{"name":"Garca","lat":-22.22,"lng":-49.66},{"name":"Goiana","lat":-7.5596,"lng":-35},{"name":"Goianesia","lat":-15.3096,"lng":-49.13},{"name":"Goiania","lat":-16.72,"lng":-49.3},{"name":"Governador Valadares","lat":-18.87,"lng":-41.97},{"name":"Grajau","lat":-5.81,"lng":-46.15},{"name":"Granja","lat":-3.1195,"lng":-40.84},{"name":"Guaira","lat":-24.09,"lng":-54.27},{"name":"Guajara-Miram","lat":-10.8,"lng":-65.3499},{"name":"Guanambi","lat":-14.2296,"lng":-42.79},{"name":"Guanhaes","lat":-18.78,"lng":-42.95},{"name":"Guarapuava","lat":-25.38,"lng":-51.48},{"name":"Guaratingueta","lat":-22.82,"lng":-45.19},{"name":"Guaxupe","lat":-21.29,"lng":-46.71},{"name":"Gurupi","lat":-11.7196,"lng":-49.06},{"name":"Ico","lat":-6.4,"lng":-38.85},{"name":"Iguape","lat":-24.72,"lng":-47.5699},{"name":"Iguatu","lat":-6.36,"lng":-39.3},{"name":"Ijui","lat":-28.3895,"lng":-53.9199},{"name":"Ilheus","lat":-14.78,"lng":-39.05},{"name":"Imbituba","lat":-28.2296,"lng":-48.66},{"name":"Imperatriz","lat":-5.52,"lng":-47.49},{"name":"Inhumas","lat":-16.36,"lng":-49.5},{"name":"Ipatinga","lat":-19.4796,"lng":-42.52},{"name":"Ipora","lat":-16.45,"lng":-51.13},{"name":"Ipu","lat":-4.3196,"lng":-40.7201},{"name":"Irati","lat":-25.47,"lng":-50.66},{"name":"Irece","lat":-11.3,"lng":-41.87},{"name":"Itaberaba","lat":-12.5196,"lng":-40.3},{"name":"Itaberai","lat":-16.02,"lng":-49.81},{"name":"Itabuna","lat":-14.7896,"lng":-39.28},{"name":"Itacoatiara","lat":-3.14,"lng":-58.44},{"name":"Itaituba","lat":-4.2586,"lng":-55.925},{"name":"Itajai","lat":-26.8996,"lng":-48.68},{"name":"Itamaraju","lat":-17.0396,"lng":-39.5299},{"name":"Itambe","lat":-15.2396,"lng":-40.63},{"name":"Itanhaem","lat":-24.18,"lng":-46.8},{"name":"Itapecuru Mirim","lat":-3.4,"lng":-44.36},{"name":"Itapetinga","lat":-15.25,"lng":-40.25},{"name":"Itapetininga","lat":-23.59,"lng":-48.04},{"name":"Itapeva","lat":-23.9796,"lng":-48.88},{"name":"Itapipoca","lat":-3.4995,"lng":-39.58},{"name":"Itauna","lat":-20.06,"lng":-44.57},{"name":"Itu","lat":-23.26,"lng":-47.3},{"name":"Ituiutaba","lat":-18.97,"lng":-49.46},{"name":"Itumbiara","lat":-18.3996,"lng":-49.21},{"name":"Itupiranga","lat":-5.12,"lng":-49.3},{"name":"Iturama","lat":-19.73,"lng":-50.2},{"name":"Jaboatao","lat":-8.11,"lng":-35.02},{"name":"Jaboticabal","lat":-21.25,"lng":-48.33},{"name":"Jacareacanga","lat":-6.2666,"lng":-57.65},{"name":"Jacarezinho","lat":-23.1599,"lng":-49.98},{"name":"Jaguaquara","lat":-13.53,"lng":-39.97},{"name":"Jaguarao","lat":-32.56,"lng":-53.37},{"name":"Janauba","lat":-15.7996,"lng":-43.31},{"name":"Januaria","lat":-15.48,"lng":-44.37},{"name":"Jaragua do Sul","lat":-26.48,"lng":-49.1},{"name":"Jardim","lat":-21.4799,"lng":-56.15},{"name":"Jatai","lat":-17.8796,"lng":-51.75},{"name":"Jau","lat":-22.2896,"lng":-48.57},{"name":"Jequie","lat":-13.85,"lng":-40.08},{"name":"Ji-Parana","lat":-10.8333,"lng":-61.967},{"name":"Joacaba","lat":-27.17,"lng":-51.5},{"name":"Joao Pessoa","lat":-7.1011,"lng":-34.8761},{"name":"Joinville","lat":-26.32,"lng":-48.8399},{"name":"Juazeiro","lat":-9.42,"lng":-40.5},{"name":"Juazeiro do Norte","lat":-7.21,"lng":-39.32},{"name":"Juiz de Fora","lat":-21.77,"lng":-43.375},{"name":"Jundiai","lat":-23.2,"lng":-46.88},{"name":"Laguna","lat":-28.48,"lng":-48.78},{"name":"Lajes","lat":-27.8096,"lng":-50.31},{"name":"Lapa","lat":-25.76,"lng":-49.73},{"name":"Lavras","lat":-21.2496,"lng":-45.01},{"name":"Leopoldina","lat":-21.53,"lng":-42.64},{"name":"Limeira","lat":-22.5495,"lng":-47.4},{"name":"Linhares","lat":-19.39,"lng":-40.05},{"name":"Londrina","lat":-23.3,"lng":-51.18},{"name":"Macae","lat":-22.38,"lng":-41.79},{"name":"Macapa","lat":0.033,"lng":-51.05},{"name":"Maceio","lat":-9.62,"lng":-35.73},{"name":"Manacapuru","lat":-3.2896,"lng":-60.62},{"name":"Manaus","lat":-3.1,"lng":-60},{"name":"Manicore","lat":-5.8122,"lng":-61.2975},{"name":"Maraba","lat":-5.35,"lng":-49.116},{"name":"Maracaju","lat":-21.61,"lng":-55.18},{"name":"Marilia","lat":-22.21,"lng":-49.95},{"name":"Maringa","lat":-23.4095,"lng":-51.93},{"name":"Mato Grosso","lat":-15,"lng":-59.95},{"name":"Maues","lat":-3.3896,"lng":-57.72},{"name":"Mineiros","lat":-17.5695,"lng":-52.56},{"name":"Miracema","lat":-21.41,"lng":-42.2},{"name":"Montes Claros","lat":-16.72,"lng":-43.86},{"name":"Morrinhos","lat":-17.73,"lng":-49.11},{"name":"Mossoro","lat":-5.19,"lng":-37.34},{"name":"Muriae","lat":-21.13,"lng":-42.39},{"name":"Nanuque","lat":-17.84,"lng":-40.35},{"name":"Natal","lat":-6.9838,"lng":-60.2699},{"name":"Natal","lat":-5.78,"lng":-35.24},{"name":"Niquelandia","lat":-14.4696,"lng":-48.47},{"name":"Niteroi","lat":-22.9,"lng":-43.1},{"name":"Nova Cruz","lat":-6.4696,"lng":-35.44},{"name":"Nova Friburgo","lat":-22.26,"lng":-42.54},{"name":"Nova Iguacu","lat":-22.74,"lng":-43.47},{"name":"Nova Lima","lat":-19.98,"lng":-43.85},{"name":"Nova Vicosa","lat":-17.88,"lng":-39.37},{"name":"Novo Airao","lat":-2.6208,"lng":-60.9438},{"name":"Novo Hamburgo","lat":-29.7096,"lng":-51.14},{"name":"Novo Horizonte","lat":-21.4596,"lng":-49.22},{"name":"Obidos","lat":-1.91,"lng":-55.52},{"name":"Olinda","lat":-8,"lng":-34.85},{"name":"Oriximina","lat":-1.7596,"lng":-55.87},{"name":"Osorio","lat":-29.88,"lng":-50.27},{"name":"Ourinhos","lat":-22.97,"lng":-49.87},{"name":"Palmas","lat":-26.48,"lng":-52},{"name":"Palmas","lat":-10.2377,"lng":-48.2878},{"name":"Palmeira dos Indios","lat":-9.4166,"lng":-36.6166},{"name":"Paracatu","lat":-17.1996,"lng":-46.87},{"name":"Paracuru","lat":-3.3995,"lng":-39.04},{"name":"Paragominas","lat":-2.9596,"lng":-47.49},{"name":"Paranagua","lat":-25.5279,"lng":-48.5345},{"name":"Paranaiba","lat":-19.6796,"lng":-51.2},{"name":"Parintins","lat":-2.61,"lng":-56.74},{"name":"Parnaiba","lat":-2.91,"lng":-41.77},{"name":"Passo Fundo","lat":-28.25,"lng":-52.42},{"name":"Passos","lat":-20.71,"lng":-46.61},{"name":"Patos","lat":-7.0196,"lng":-37.29},{"name":"Paulo Afonso","lat":-9.3307,"lng":-38.2657},{"name":"Pedreiras","lat":-4.5696,"lng":-44.67},{"name":"Pelotas","lat":-31.75,"lng":-52.33},{"name":"Penapolis","lat":-21.41,"lng":-50.08},{"name":"Penedo","lat":-10.2696,"lng":-36.58},{"name":"Petrolina","lat":-9.38,"lng":-40.51},{"name":"Petropolis","lat":-22.5095,"lng":-43.2},{"name":"Picos","lat":-7.08,"lng":-41.44},{"name":"Pimenta Bueno","lat":-11.64,"lng":-61.21},{"name":"Pindamonhangaba","lat":-22.92,"lng":-45.47},{"name":"Pinheiro","lat":-2.5196,"lng":-45.09},{"name":"Piracicaba","lat":-22.71,"lng":-47.64},{"name":"Pirapora","lat":-17.33,"lng":-44.93},{"name":"Pirassununga","lat":-21.99,"lng":-47.43},{"name":"Pires do Rio","lat":-17.2995,"lng":-48.28},{"name":"Piripiri","lat":-4.2696,"lng":-41.79},{"name":"Pocos de Caldas","lat":-21.78,"lng":-46.57},{"name":"Ponta Grossa","lat":-25.09,"lng":-50.16},{"name":"Ponta Pora","lat":-22.53,"lng":-55.73},{"name":"Ponte Nova","lat":-20.4096,"lng":-42.9},{"name":"Pontes e Lacerda","lat":-15.2196,"lng":-59.35},{"name":"Portel","lat":-1.95,"lng":-50.82},{"name":"Porto Alegre","lat":-30.05,"lng":-51.2},{"name":"Porto Nacional","lat":-10.7,"lng":-48.4199},{"name":"Porto Santana","lat":-0.0396,"lng":-51.18},{"name":"Porto Seguro","lat":-16.4296,"lng":-39.08},{"name":"Porto Uniao","lat":-26.2396,"lng":-51.08},{"name":"Porto Velho","lat":-8.75,"lng":-63.9},{"name":"Pouso Alegre","lat":-22.22,"lng":-45.94},{"name":"Presidente Dutra","lat":-5.25,"lng":-44.52},{"name":"Presidente Prudente","lat":-22.12,"lng":-51.39},{"name":"Principe da Beira","lat":-12.4167,"lng":-64.4166},{"name":"Quarai","lat":-30.38,"lng":-56.4599},{"name":"Quixada","lat":-4.97,"lng":-39.02},{"name":"Recife","lat":-8.0756,"lng":-34.9156},{"name":"Registro","lat":-24.49,"lng":-47.84},{"name":"Remanso","lat":-9.5996,"lng":-42.11},{"name":"Ribeirao Preto","lat":-21.17,"lng":-47.83},{"name":"Rio Branco","lat":-9.9666,"lng":-67.8},{"name":"Rio Claro","lat":-22.41,"lng":-47.56},{"name":"Rio de Janeiro","lat":-22.925,"lng":-43.225},{"name":"Rio Grande","lat":-32.0495,"lng":-52.12},{"name":"Rio Largo","lat":-9.48,"lng":-35.84},{"name":"Rio Negro","lat":-26.1,"lng":-49.79},{"name":"Rio Verde","lat":-17.8196,"lng":-50.93},{"name":"Rolim de Moura","lat":-11.7302,"lng":-61.7806},{"name":"Rondonopolis","lat":-16.4695,"lng":-54.64},{"name":"Rosario","lat":-2.94,"lng":-44.26},{"name":"Rosario do Sul","lat":-30.25,"lng":-54.92},{"name":"Russas","lat":-4.94,"lng":-37.98},{"name":"Salgueiro","lat":-8.0596,"lng":-39.13},{"name":"Salinopolis","lat":-0.6095,"lng":-47.34},{"name":"Salvador","lat":-12.97,"lng":-38.48},{"name":"Santa Cruz","lat":-6.22,"lng":-36.03},{"name":"Santa Cruz Cabralia","lat":-16.28,"lng":-39.03},{"name":"Santa Cruz do Sul","lat":-29.71,"lng":-52.44},{"name":"Santa Ines","lat":-3.66,"lng":-45.39},{"name":"Santa Maria","lat":-29.6833,"lng":-53.8},{"name":"Santa Maria da Vitoria","lat":-13.39,"lng":-44.21},{"name":"Santa Rosa","lat":-27.8695,"lng":-54.46},{"name":"Santa Vitoria do Palmar","lat":-33.52,"lng":-53.37},{"name":"Santana do Livramento","lat":-30.88,"lng":-55.53},{"name":"Santarem","lat":-2.4333,"lng":-54.7},{"name":"Santo Andre","lat":-23.6528,"lng":-46.5278},{"name":"Santo Angelo","lat":-28.3,"lng":-54.28},{"name":"Santos","lat":-23.9537,"lng":-46.3329},{"name":"Sao Borja","lat":-28.6596,"lng":-56.01},{"name":"Sao Cabriel da Cachoeira","lat":-0.1332,"lng":-67.0833},{"name":"Sao Carlos","lat":-22.02,"lng":-47.89},{"name":"Sao Francisco do Sul","lat":-26.2396,"lng":-48.6},{"name":"Sao Gabriel","lat":-30.32,"lng":-54.32},{"name":"Sao Joao da Boa Vista","lat":-21.98,"lng":-46.79},{"name":"Sao Joao del Rei","lat":-21.13,"lng":-44.25},{"name":"Sao Jose de Ribamar","lat":-2.55,"lng":-44.07},{"name":"Sao Jose do Rio Preto","lat":-20.7996,"lng":-49.39},{"name":"Sao Jose dos Campos","lat":-23.2,"lng":-45.8799},{"name":"Sao Jose dos Pinhais","lat":-25.57,"lng":-49.18},{"name":"Sao Lourenco do Sul","lat":-31.37,"lng":-51.98},{"name":"Sao Luis","lat":-2.516,"lng":-44.266},{"name":"Sao Luiz Gonzaga","lat":-28.41,"lng":-54.96},{"name":"Sao Mateus","lat":-18.7296,"lng":-39.86},{"name":"Sao Paulo","lat":-23.5587,"lng":-46.625},{"name":"Sena Madureira","lat":-9.07,"lng":-68.67},{"name":"Senhor do Bonfim","lat":-10.4496,"lng":-40.19},{"name":"Serrinha","lat":-11.6496,"lng":-39.01},{"name":"Sete Lagoas","lat":-19.4496,"lng":-44.25},{"name":"Sinop","lat":-11.85,"lng":-55.46},{"name":"Sobral","lat":-3.69,"lng":-40.35},{"name":"Sorocaba","lat":-23.49,"lng":-47.47},{"name":"Tatui","lat":-23.35,"lng":-47.86},{"name":"Taua","lat":-5.9995,"lng":-40.31},{"name":"Taubate","lat":-23.0195,"lng":-45.56},{"name":"Tefe","lat":-3.36,"lng":-64.7},{"name":"Telemaco Borba","lat":-24.33,"lng":-50.62},{"name":"Teofilo Otoni","lat":-17.87,"lng":-41.5},{"name":"Teresina","lat":-5.095,"lng":-42.78},{"name":"Timbauba","lat":-7.4996,"lng":-35.32},{"name":"Timon","lat":-5.115,"lng":-42.845},{"name":"Tocantinopolis","lat":-6.3196,"lng":-47.42},{"name":"Tonantins","lat":-2.8727,"lng":-67.8019},{"name":"Tres Lagoas","lat":-20.79,"lng":-51.72},{"name":"Trindade","lat":-16.65,"lng":-49.5},{"name":"Tubarao","lat":-28.48,"lng":-49.02},{"name":"Tucano","lat":-10.9696,"lng":-38.79},{"name":"Tucurui","lat":-3.68,"lng":-49.72},{"name":"Tupa","lat":-21.93,"lng":-50.52},{"name":"Uba","lat":-21.1196,"lng":-42.95},{"name":"Ubaitaba","lat":-14.3,"lng":-39.33},{"name":"Uberaba","lat":-19.78,"lng":-47.95},{"name":"Uberlandia","lat":-18.9,"lng":-48.28},{"name":"Uruguaiana","lat":-29.7696,"lng":-57.09},{"name":"Vacaria","lat":-28.4996,"lng":-50.94},{"name":"Valenca","lat":-13.3596,"lng":-39.08},{"name":"Varzea Grande","lat":-15.65,"lng":-56.14},{"name":"Viana","lat":-3.2096,"lng":-45},{"name":"Vila Velha","lat":-20.3676,"lng":-40.318},{"name":"Vila Velha","lat":3.2167,"lng":-51.2167},{"name":"Vilhena","lat":-12.7166,"lng":-60.1166},{"name":"Viseu","lat":-1.1965,"lng":-46.14},{"name":"Vitoria","lat":-20.324,"lng":-40.366},{"name":"Vitoria da Conquista","lat":-14.85,"lng":-40.84},{"name":"Volta Redonda","lat":-22.5196,"lng":-44.095},{"name":"Xapeco","lat":-27.1,"lng":-52.64},{"name":"Xinguara","lat":-7.1006,"lng":-49.948},{"name":"Xique-Xique","lat":-10.82,"lng":-42.73}],"Brunei":[{"name":"Bandar Seri Begawan","lat":4.8833,"lng":114.9333}],"Bulgaria":[{"name":"Blagoevgrad","lat":42.0167,"lng":23.1},{"name":"Burgas","lat":42.5146,"lng":27.4746},{"name":"Dobrich","lat":43.5851,"lng":27.84},{"name":"Gabrovo","lat":42.8747,"lng":25.3342},{"name":"Kardzhali","lat":41.65,"lng":25.3667},{"name":"Khaskovo","lat":41.9438,"lng":25.5633},{"name":"Kyustendil","lat":42.2843,"lng":22.6911},{"name":"Lovec","lat":43.138,"lng":24.719},{"name":"Montana","lat":43.414,"lng":23.237},{"name":"Pazardzhik","lat":42.2,"lng":24.3333},{"name":"Pernik","lat":42.61,"lng":23.0227},{"name":"Pleven","lat":43.4238,"lng":24.6134},{"name":"Plovdiv","lat":42.154,"lng":24.754},{"name":"Razgrad","lat":43.534,"lng":26.536},{"name":"Ruse","lat":43.8537,"lng":25.9733},{"name":"Shumen","lat":43.27,"lng":26.9294},{"name":"Silistra","lat":44.1167,"lng":27.2667},{"name":"Sliven","lat":42.6794,"lng":26.33},{"name":"Smolyan","lat":41.5853,"lng":24.6919},{"name":"Sofia","lat":42.6833,"lng":23.3167},{"name":"Stara Zagora","lat":42.4231,"lng":25.6227},{"name":"Targovishte","lat":43.2592,"lng":26.5892},{"name":"Turnovo","lat":43.0862,"lng":25.6555},{"name":"Varna","lat":43.2156,"lng":27.8953},{"name":"Vidin","lat":43.99,"lng":22.8725},{"name":"Vratsa","lat":43.21,"lng":23.5625},{"name":"Yambol","lat":42.4833,"lng":26.5}],"Burkina Faso":[{"name":"Banfora","lat":10.6304,"lng":-4.76},{"name":"Bobo Dioulasso","lat":11.18,"lng":-4.29},{"name":"Bogande","lat":12.969,"lng":-0.138},{"name":"Boulsa","lat":12.657,"lng":-0.569},{"name":"Dedougou","lat":12.455,"lng":-3.464},{"name":"Diapaga","lat":12.077,"lng":1.796},{"name":"Diebougou","lat":10.952,"lng":-3.248},{"name":"Djibo","lat":14.099,"lng":-1.627},{"name":"Dori","lat":14.034,"lng":-0.028},{"name":"Fada Ngourma","lat":12.055,"lng":0.361},{"name":"Gaoua","lat":10.2992,"lng":-3.2508},{"name":"Gaoua","lat":10.325,"lng":-3.174},{"name":"Gorom Gorom","lat":14.45,"lng":-0.2333},{"name":"Kaya","lat":13.0904,"lng":-1.09},{"name":"Kombissiri","lat":12.064,"lng":-1.334},{"name":"Koudougou","lat":12.2505,"lng":-2.37},{"name":"Koupela","lat":12.177,"lng":-0.356},{"name":"Leo","lat":11.094,"lng":-2.098},{"name":"Manga","lat":11.662,"lng":-1.065},{"name":"Nouna","lat":12.729,"lng":-3.86},{"name":"Orodara","lat":10.974,"lng":-4.908},{"name":"Ouagadougou","lat":12.3703,"lng":-1.5247},{"name":"Ouahigouya","lat":13.5704,"lng":-2.42},{"name":"Po","lat":11.169,"lng":-1.135},{"name":"Reo","lat":12.3335,"lng":-2.4669},{"name":"Sapouy","lat":11.5544,"lng":-1.7736},{"name":"Sebba","lat":13.4364,"lng":0.5304},{"name":"Solenzo","lat":12.1833,"lng":-4.0833},{"name":"Tenkodogo","lat":11.7804,"lng":-0.3697},{"name":"Tougan","lat":13.069,"lng":-3.07},{"name":"Yako","lat":12.954,"lng":-2.263},{"name":"Ziniare","lat":12.577,"lng":-1.293},{"name":"Zorgo","lat":12.243,"lng":-0.611}],"Burma":[{"name":"Allanmyo","lat":19.3783,"lng":95.2279},{"name":"Bago","lat":17.32,"lng":96.515},{"name":"Chauk","lat":20.9085,"lng":94.823},{"name":"Dawei","lat":14.098,"lng":98.195},{"name":"Hakha","lat":22.65,"lng":93.6167},{"name":"Hinthada","lat":17.6483,"lng":95.4679},{"name":"Kyaukphyu","lat":19.429,"lng":93.5494},{"name":"Labutta","lat":16.1619,"lng":94.7014},{"name":"Letpadan","lat":17.7819,"lng":95.7415},{"name":"Loikaw","lat":19.665,"lng":97.206},{"name":"Magway","lat":20.1445,"lng":94.9196},{"name":"Mandalay","lat":21.97,"lng":96.085},{"name":"Mawlamyine","lat":16.5004,"lng":97.67},{"name":"Monywa","lat":22.105,"lng":95.15},{"name":"Mudon","lat":16.2618,"lng":97.7215},{"name":"Myeik","lat":12.4541,"lng":98.6115},{"name":"Myingyan","lat":21.4618,"lng":95.3914},{"name":"Myitkyina","lat":25.3596,"lng":97.3928},{"name":"Namtu","lat":23.0837,"lng":97.4},{"name":"Naypyidaw","lat":19.7666,"lng":96.1186},{"name":"Pa-an","lat":16.85,"lng":97.6167},{"name":"Pakokku","lat":21.332,"lng":95.0866},{"name":"Pathein","lat":16.7704,"lng":94.75},{"name":"Phyarpon","lat":16.2933,"lng":95.6829},{"name":"Pyay","lat":18.8165,"lng":95.2114},{"name":"Pyu","lat":18.4779,"lng":96.4379},{"name":"Rangoon","lat":16.7834,"lng":96.1667},{"name":"Sagaing","lat":21.88,"lng":95.962},{"name":"Shwebo","lat":22.5783,"lng":95.6929},{"name":"Sittwe","lat":20.14,"lng":92.88},{"name":"Taunggyi","lat":20.782,"lng":97.038},{"name":"Taungoo","lat":18.9483,"lng":96.4179},{"name":"Thongwa","lat":16.7547,"lng":96.5193},{"name":"Wakema","lat":16.6133,"lng":95.1829},{"name":"Yandoon","lat":17.0433,"lng":95.6429},{"name":"Yaynangyoung","lat":20.4615,"lng":94.881},{"name":"Ye","lat":15.2533,"lng":97.8679}],"Burundi":[{"name":"Bubanza","lat":-3.0833,"lng":29.3667},{"name":"Bujumbura","lat":-3.3761,"lng":29.36},{"name":"Bururi","lat":-3.9507,"lng":29.6166},{"name":"Cankuzo","lat":-3.1667,"lng":30.5167},{"name":"Cibitoke","lat":-2.8869,"lng":29.1248},{"name":"Gitega","lat":-3.4264,"lng":29.9308},{"name":"Gitega","lat":-3.426,"lng":29.8436},{"name":"Isale","lat":-3.3489,"lng":29.4839},{"name":"Karusi","lat":-3.1,"lng":30.163},{"name":"Kayanza","lat":-2.9,"lng":29.5667},{"name":"Kirundo","lat":-2.5847,"lng":30.0972},{"name":"Makamba","lat":-4.1333,"lng":29.8},{"name":"Muramvya","lat":-3.261,"lng":29.612},{"name":"Muyinga","lat":-2.8523,"lng":30.3173},{"name":"Mwaro","lat":-3.5113,"lng":29.7051},{"name":"Ngozi","lat":-2.912,"lng":29.825},{"name":"Rumonge","lat":-3.9736,"lng":29.4386},{"name":"Rutana","lat":-3.931,"lng":29.993},{"name":"Ruyigi","lat":-3.481,"lng":30.244}],"Côte D’Ivoire":[{"name":"Abengourou","lat":6.7304,"lng":-3.49},{"name":"Abidjan","lat":5.32,"lng":-4.04},{"name":"Aboisso","lat":5.4667,"lng":-3.2},{"name":"Agboville","lat":5.9403,"lng":-4.28},{"name":"Bangolo","lat":7.0123,"lng":-7.4864},{"name":"Bondoukou","lat":8.0304,"lng":-2.8},{"name":"Bouafle","lat":6.978,"lng":-5.748},{"name":"Bouake","lat":7.69,"lng":-5.03},{"name":"Dabou","lat":5.3204,"lng":-4.3899},{"name":"Daloa","lat":6.89,"lng":-6.45},{"name":"Dimbokro","lat":6.6505,"lng":-4.71},{"name":"Divo","lat":5.839,"lng":-5.36},{"name":"Ferkessedougou","lat":9.6004,"lng":-5.2},{"name":"Gagnoa","lat":6.1504,"lng":-5.88},{"name":"Grand Bassam","lat":5.2004,"lng":-3.75},{"name":"Guiglo","lat":6.5505,"lng":-7.49},{"name":"Korhogo","lat":9.46,"lng":-5.64},{"name":"Man","lat":7.4004,"lng":-7.55},{"name":"Odienne","lat":9.5104,"lng":-7.58},{"name":"San-Pedro","lat":4.7704,"lng":-6.64},{"name":"Sassandra","lat":4.9504,"lng":-6.0833},{"name":"Seguela","lat":7.9504,"lng":-6.67},{"name":"Soubre","lat":5.7904,"lng":-6.61},{"name":"Touba","lat":8.28,"lng":-7.684},{"name":"Toumodi","lat":6.552,"lng":-5.019},{"name":"Yamoussoukro","lat":6.8184,"lng":-5.2755}],"Cabo Verde":[{"name":"Assomada","lat":15.1,"lng":-23.6833},{"name":"Calheta de Sao Miguel","lat":15.1833,"lng":-23.6},{"name":"Cidade Velha","lat":14.9167,"lng":-23.6167},{"name":"Cova Figueira","lat":14.8833,"lng":-24.3},{"name":"Mindelo","lat":16.8838,"lng":-25},{"name":"Picos","lat":15.0833,"lng":-23.65},{"name":"Pombas","lat":17.1503,"lng":-25.0201},{"name":"Porto dos Mosteiros","lat":15.0333,"lng":-24.3333},{"name":"Porto Novo","lat":17.0254,"lng":-25.0666},{"name":"Praia","lat":14.9167,"lng":-23.5167},{"name":"Ribeira Grande","lat":17.1856,"lng":-25.0724},{"name":"Santa Maria","lat":16.6,"lng":-22.9},{"name":"Sao Domingos","lat":15.0167,"lng":-23.5667},{"name":"Sao Filipe","lat":14.9,"lng":-24.5167},{"name":"Tarrafal","lat":16.5667,"lng":-24.3667},{"name":"Tarrafal","lat":15.2833,"lng":-23.7667},{"name":"Vila da Ribeira Brava","lat":16.6167,"lng":-24.3},{"name":"Vila de Sal Rei","lat":16.1833,"lng":-22.9167},{"name":"Vila do Maio","lat":15.1333,"lng":-23.2167},{"name":"Vila Nova Sintra","lat":14.8667,"lng":-24.7167}],"Cambodia":[{"name":"Banlung","lat":13.7394,"lng":106.9873},{"name":"Battambang","lat":13.1,"lng":103.2},{"name":"Kampong Cham","lat":12.0004,"lng":105.45},{"name":"Kampong Spoe","lat":11.452,"lng":104.519},{"name":"Kampong Thom","lat":12.7111,"lng":104.8887},{"name":"Kampong Thum","lat":12.712,"lng":104.889},{"name":"Kampot","lat":10.6171,"lng":104.1833},{"name":"Kompong Chhnang","lat":12.2505,"lng":104.6666},{"name":"Kracheh","lat":12.469,"lng":106.024},{"name":"Krong Kep","lat":10.4829,"lng":104.3167},{"name":"Krong Koh Kong","lat":11.6175,"lng":102.9849},{"name":"Lumphat","lat":13.507,"lng":106.981},{"name":"Pailin","lat":12.8489,"lng":102.6093},{"name":"Phnom Penh","lat":11.55,"lng":104.9166},{"name":"Phnum Tbeng Meanchey","lat":13.8167,"lng":104.9667},{"name":"Prey Veng","lat":11.484,"lng":105.324},{"name":"Pursat","lat":12.5337,"lng":103.9167},{"name":"Samraong","lat":14.1817,"lng":103.5176},{"name":"Senmonorom","lat":12.45,"lng":107.2},{"name":"Siem Reap","lat":13.3666,"lng":103.85},{"name":"Sihanoukville","lat":10.6359,"lng":103.5017},{"name":"Sisophon","lat":13.5838,"lng":102.9833},{"name":"Stoeng Treng","lat":13.523,"lng":105.974},{"name":"Suong","lat":11.9118,"lng":105.6582},{"name":"Svay Rieng","lat":11.08,"lng":105.801},{"name":"Ta Khmau","lat":11.4833,"lng":104.95},{"name":"Takeo","lat":10.9838,"lng":104.7833}],"Cameroon":[{"name":"Abong Mbang","lat":3.9837,"lng":13.1833},{"name":"Bafang","lat":5.1704,"lng":10.18},{"name":"Bafia","lat":4.7504,"lng":11.23},{"name":"Bafoussam","lat":5.4904,"lng":10.4099},{"name":"Bamenda","lat":5.96,"lng":10.15},{"name":"Batouri","lat":4.4337,"lng":14.3666},{"name":"Belabo","lat":4.9337,"lng":13.3},{"name":"Bertoua","lat":4.5804,"lng":13.68},{"name":"Buea","lat":4.155,"lng":9.231},{"name":"Douala","lat":4.0604,"lng":9.71},{"name":"Ebolowa","lat":2.9,"lng":11.15},{"name":"Edea","lat":3.8005,"lng":10.12},{"name":"Eseka","lat":3.6504,"lng":10.7666},{"name":"Eyumojok","lat":5.7504,"lng":8.9833},{"name":"Foumban","lat":5.7304,"lng":10.9},{"name":"Garoua","lat":9.3,"lng":13.39},{"name":"Guider","lat":9.9304,"lng":13.94},{"name":"Kontcha","lat":7.967,"lng":12.2333},{"name":"Kribi","lat":2.9404,"lng":9.91},{"name":"Kumba","lat":4.6404,"lng":9.44},{"name":"Kumbo","lat":6.2204,"lng":10.68},{"name":"Limbe","lat":4.0304,"lng":9.19},{"name":"Maroua","lat":10.5956,"lng":14.3247},{"name":"Mbalmayo","lat":3.5204,"lng":11.5},{"name":"Mbe","lat":7.8504,"lng":13.6},{"name":"Meiganga","lat":6.5205,"lng":14.29},{"name":"Ngaoundere","lat":7.3204,"lng":13.58},{"name":"Nkongsamba","lat":4.9604,"lng":9.94},{"name":"Tibati","lat":6.467,"lng":12.6333},{"name":"Wum","lat":6.4004,"lng":10.07},{"name":"Yaounde","lat":3.8667,"lng":11.5167}],"Canada":[{"name":"Abbotsford","lat":49.0504,"lng":-122.3},{"name":"Alert","lat":82.4833,"lng":-62.25},{"name":"Amherst","lat":45.8166,"lng":-64.2166},{"name":"Amos","lat":48.5666,"lng":-78.1167},{"name":"Antigonish","lat":45.6269,"lng":-61.9982},{"name":"Arctic Bay","lat":73.0333,"lng":-85.1666},{"name":"Argentia","lat":47.3004,"lng":-53.99},{"name":"Arviat","lat":61.1086,"lng":-94.0586},{"name":"Athabasca","lat":54.717,"lng":-113.2666},{"name":"Atikokan","lat":48.7504,"lng":-91.6166},{"name":"Attawapiskat","lat":52.9166,"lng":-82.4333},{"name":"Baddeck","lat":46.1,"lng":-60.754},{"name":"Baie-Comeau","lat":49.2227,"lng":-68.158},{"name":"Baker Lake","lat":64.317,"lng":-96.0167},{"name":"Banff","lat":51.178,"lng":-115.5719},{"name":"Barrie","lat":44.3838,"lng":-79.7},{"name":"Bathurst","lat":47.6,"lng":-65.65},{"name":"Bella Bella","lat":52.1484,"lng":-128.1173},{"name":"Belleville","lat":44.1667,"lng":-77.3833},{"name":"Berens River","lat":52.3666,"lng":-97.0333},{"name":"Big Beaver House","lat":52.95,"lng":-89.8833},{"name":"Biggar","lat":52.0504,"lng":-107.9833},{"name":"Brandon","lat":49.8333,"lng":-99.95},{"name":"Brochet","lat":57.8832,"lng":-101.6666},{"name":"Brockville","lat":44.5893,"lng":-75.6953},{"name":"Brooks","lat":50.5671,"lng":-111.9},{"name":"Buchans","lat":48.817,"lng":-56.8666},{"name":"Burns Lake","lat":54.217,"lng":-125.7666},{"name":"Burwash Landing","lat":61.3504,"lng":-139},{"name":"Calgary","lat":51.083,"lng":-114.08},{"name":"Cambridge Bay","lat":69.117,"lng":-105.0333},{"name":"Campbell River","lat":50.0171,"lng":-125.25},{"name":"Camrose","lat":53.0167,"lng":-112.8166},{"name":"Cap-Chat","lat":49.1,"lng":-66.6833},{"name":"Cape Dorset","lat":64.3125,"lng":-76.5386},{"name":"Cartwright","lat":53.7014,"lng":-57.0121},{"name":"Cat Lake","lat":51.717,"lng":-91.8},{"name":"Channel-Port aux Basques","lat":47.567,"lng":-59.15},{"name":"Chapleau","lat":47.8337,"lng":-83.4},{"name":"Charlottetown","lat":46.2493,"lng":-63.1313},{"name":"Chesterfield Inlet","lat":63.3383,"lng":-90.7001},{"name":"Chicoutimi","lat":48.4333,"lng":-71.0667},{"name":"Chilliwack","lat":49.1666,"lng":-121.95},{"name":"Churchill","lat":58.766,"lng":-94.166},{"name":"Cobalt","lat":47.3837,"lng":-79.6833},{"name":"Cochrane","lat":49.067,"lng":-81.0166},{"name":"Coral Harbour","lat":64.1538,"lng":-83.1766},{"name":"Corner Brook","lat":48.95,"lng":-57.9333},{"name":"Cornwall","lat":45.0171,"lng":-74.7333},{"name":"Courtenay","lat":49.6833,"lng":-125},{"name":"Cranbrook","lat":49.5167,"lng":-115.7667},{"name":"Creston","lat":49.1,"lng":-116.5167},{"name":"Dauphin","lat":51.15,"lng":-100.05},{"name":"Dawson City","lat":64.0666,"lng":-139.4167},{"name":"Dawson Creek","lat":55.767,"lng":-120.2333},{"name":"Dease Lake","lat":58.4503,"lng":-130.0333},{"name":"Deer Lake","lat":49.1744,"lng":-57.4269},{"name":"Deer Lake","lat":52.617,"lng":-94.0666},{"name":"Digby","lat":44.6226,"lng":-65.7605},{"name":"Dolbeau","lat":48.8666,"lng":-72.2333},{"name":"Doline","lat":65.1833,"lng":-123.4167},{"name":"Drummondville","lat":45.8833,"lng":-72.4834},{"name":"Dryden","lat":49.7833,"lng":-92.8333},{"name":"Eastmain","lat":52.2333,"lng":-78.5167},{"name":"Edmonton","lat":53.55,"lng":-113.5},{"name":"Edmundston","lat":47.3794,"lng":-68.3333},{"name":"Ennadai","lat":61.1333,"lng":-100.8833},{"name":"Flin Flon","lat":54.7666,"lng":-101.8833},{"name":"Fort Chipewyan","lat":58.7171,"lng":-111.15},{"name":"Fort Good Hope","lat":66.2666,"lng":-128.6333},{"name":"Fort McMurray","lat":56.7333,"lng":-111.3833},{"name":"Fort McPherson","lat":67.4915,"lng":-134.895},{"name":"Fort Nelson","lat":58.8167,"lng":-122.533},{"name":"Fort Resolution","lat":61.1666,"lng":-113.683},{"name":"Fort Severn","lat":55.9833,"lng":-87.65},{"name":"Fort Simpson","lat":61.85,"lng":-121.3333},{"name":"Fort Smith","lat":60,"lng":-111.8833},{"name":"Fort St. John","lat":56.25,"lng":-120.8333},{"name":"Forteau","lat":51.4504,"lng":-56.95},{"name":"Fredericton","lat":45.95,"lng":-66.6333},{"name":"Gander","lat":48.95,"lng":-54.55},{"name":"Gaspe","lat":48.8373,"lng":-64.4934},{"name":"Geraldton","lat":49.7166,"lng":-86.9666},{"name":"Gillam","lat":56.35,"lng":-94.7},{"name":"Gimli","lat":50.6333,"lng":-97},{"name":"Gjoa Haven","lat":68.6333,"lng":-95.9167},{"name":"Grand Prairie","lat":55.1666,"lng":-118.8},{"name":"Grise Fiord","lat":76.4417,"lng":-82.95},{"name":"Halifax","lat":44.65,"lng":-63.6},{"name":"Hall Beach","lat":68.7675,"lng":-81.2361},{"name":"Hamilton","lat":43.25,"lng":-79.83},{"name":"Happy Valley - Goose Bay","lat":53.3,"lng":-60.3},{"name":"Hay River","lat":60.85,"lng":-115.7},{"name":"Hearst","lat":49.7005,"lng":-83.6666},{"name":"Hinton","lat":53.4,"lng":-117.5834},{"name":"Holman","lat":70.7334,"lng":-117.75},{"name":"Hopedale","lat":55.45,"lng":-60.2167},{"name":"Hudson Bay","lat":52.8504,"lng":-102.3833},{"name":"Igloolik","lat":69.2565,"lng":-81.7936},{"name":"Inukjuak","lat":58.47,"lng":-78.136},{"name":"Inuvik","lat":68.35,"lng":-133.7},{"name":"Iqaluit","lat":63.7505,"lng":-68.5002},{"name":"Island Lake","lat":53.9666,"lng":-94.7666},{"name":"Ivugivik","lat":62.4166,"lng":-77.9},{"name":"Jasper","lat":52.8833,"lng":-118.0834},{"name":"Joliette","lat":46.0333,"lng":-73.4333},{"name":"Kamloops","lat":50.6667,"lng":-120.3333},{"name":"Kangirsuk","lat":60.0248,"lng":-69.9991},{"name":"Kapuskasing","lat":49.4167,"lng":-82.4333},{"name":"Kelowna","lat":49.9,"lng":-119.4833},{"name":"Kenora","lat":49.7667,"lng":-94.4666},{"name":"Kimmirut","lat":62.85,"lng":-69.8833},{"name":"Kindersley","lat":51.467,"lng":-109.1333},{"name":"Kingston","lat":44.2337,"lng":-76.4833},{"name":"Kitchener","lat":43.45,"lng":-80.5},{"name":"Kugluktuk","lat":67.7987,"lng":-115.1254},{"name":"Kuujjuaq","lat":58.1,"lng":-68.4},{"name":"La Ronge","lat":55.1,"lng":-105.3},{"name":"La Sarre","lat":48.8,"lng":-79.2},{"name":"La Scie","lat":49.967,"lng":-55.583},{"name":"Lac La Biche","lat":54.7719,"lng":-111.9647},{"name":"Lake Louise","lat":51.4337,"lng":-116.1833},{"name":"Lansdowne House","lat":52.2166,"lng":-87.8833},{"name":"Lethbridge","lat":49.7005,"lng":-112.8333},{"name":"Lillooet","lat":50.6837,"lng":-121.9333},{"name":"Little Current","lat":45.967,"lng":-81.9333},{"name":"Liverpool","lat":44.04,"lng":-64.72},{"name":"London","lat":42.97,"lng":-81.25},{"name":"Lutselke","lat":62.4001,"lng":-110.7333},{"name":"Lynn Lake","lat":56.85,"lng":-101.05},{"name":"Marathon","lat":48.7504,"lng":-86.3667},{"name":"Matagami","lat":49.7504,"lng":-77.6333},{"name":"Meadow Lake","lat":54.1301,"lng":-108.4347},{"name":"Meander River","lat":59.0333,"lng":-117.683},{"name":"Medicine Hat","lat":50.0333,"lng":-110.6833},{"name":"Melville","lat":50.9333,"lng":-102.8},{"name":"Mingan","lat":50.3018,"lng":-64.0173},{"name":"Mistassini","lat":50.4171,"lng":-73.8666},{"name":"Moncton","lat":46.0833,"lng":-64.7667},{"name":"Mont-Laurier","lat":46.5504,"lng":-75.5},{"name":"Montreal","lat":45.5,"lng":-73.5833},{"name":"Moose Jaw","lat":50.4,"lng":-105.55},{"name":"Moosonee","lat":51.2806,"lng":-80.658},{"name":"Nain","lat":56.5474,"lng":-61.686},{"name":"Nanaimo","lat":49.146,"lng":-123.9343},{"name":"Natashquan","lat":50.1913,"lng":-61.8107},{"name":"Nelson","lat":49.4837,"lng":-117.2833},{"name":"Nelson House","lat":55.8005,"lng":-98.85},{"name":"New Glasgow","lat":45.5833,"lng":-62.6333},{"name":"New Liskeard","lat":47.5,"lng":-79.6666},{"name":"Nipigon","lat":49.017,"lng":-88.25},{"name":"Norman Wells","lat":65.2837,"lng":-126.85},{"name":"North Battleford","lat":52.7666,"lng":-108.2833},{"name":"North Bay","lat":46.3,"lng":-79.45},{"name":"Norway House","lat":53.9666,"lng":-97.8333},{"name":"Orangeville","lat":43.9171,"lng":-80.0833},{"name":"Orillia","lat":44.6,"lng":-79.4167},{"name":"Oshawa","lat":43.88,"lng":-78.85},{"name":"Ottawa","lat":45.4167,"lng":-75.7},{"name":"Owen Sound","lat":44.5666,"lng":-80.85},{"name":"Oxford House","lat":54.9504,"lng":-95.2666},{"name":"Pangnirtung","lat":66.1333,"lng":-65.75},{"name":"Parry Sound","lat":45.3337,"lng":-80.033},{"name":"Paulatuk","lat":69.3833,"lng":-123.9833},{"name":"Peace River","lat":56.2333,"lng":-117.2833},{"name":"Pembroke","lat":45.8503,"lng":-77.1166},{"name":"Penticton","lat":49.5004,"lng":-119.5833},{"name":"Peterborough","lat":44.3,"lng":-78.3333},{"name":"Pond Inlet","lat":72.685,"lng":-78.0001},{"name":"Port Hardy","lat":50.7171,"lng":-127.5},{"name":"Port Hope Simpson","lat":52.5333,"lng":-56.3},{"name":"Port-Menier","lat":49.8226,"lng":-64.348},{"name":"Powell River","lat":49.8837,"lng":-124.55},{"name":"Prince Albert","lat":53.2,"lng":-105.75},{"name":"Prince George","lat":53.9167,"lng":-122.7667},{"name":"Prince Rupert","lat":54.3167,"lng":-130.33},{"name":"Pukatawagan","lat":55.7333,"lng":-101.3166},{"name":"Quebec","lat":46.84,"lng":-71.2456},{"name":"Quesnel","lat":52.9837,"lng":-122.4833},{"name":"Radisson","lat":53.7836,"lng":-77.6166},{"name":"Rankin Inlet","lat":62.8167,"lng":-92.0953},{"name":"Red Deer","lat":52.2666,"lng":-113.8},{"name":"Red Lake","lat":51.0337,"lng":-93.8333},{"name":"Regina","lat":50.45,"lng":-104.617},{"name":"Repulse Bay","lat":66.5295,"lng":-86.2829},{"name":"Resolute","lat":74.6833,"lng":-94.9},{"name":"Revelstoke","lat":51.0005,"lng":-118.1833},{"name":"Rigolet","lat":54.1766,"lng":-58.4473},{"name":"Rimouski","lat":48.4337,"lng":-68.5167},{"name":"Riviere-du-Loup","lat":47.8333,"lng":-69.5333},{"name":"Rouyn-Noranda","lat":48.25,"lng":-79.0332},{"name":"Saint John","lat":45.267,"lng":-66.0767},{"name":"Saint-Georges","lat":46.1171,"lng":-70.6667},{"name":"Salluit","lat":62.1826,"lng":-75.6595},{"name":"Sandspit","lat":53.2404,"lng":-131.8333},{"name":"Sarnia","lat":42.9666,"lng":-82.4},{"name":"Saskatoon","lat":52.17,"lng":-106.67},{"name":"Schefferville","lat":54.8,"lng":-66.8167},{"name":"Selkirk","lat":50.15,"lng":-96.8833},{"name":"Sept-Iles","lat":50.3161,"lng":-66.36},{"name":"Shamattawa","lat":55.8504,"lng":-92.0833},{"name":"Shawinigan","lat":46.5504,"lng":-72.7333},{"name":"Shelburne","lat":43.7656,"lng":-65.3194},{"name":"Sherbrooke","lat":45.4,"lng":-71.9},{"name":"Sioux Lookout","lat":50.263,"lng":-91.9166},{"name":"Smithers","lat":54.7666,"lng":-127.1666},{"name":"St-Augustin","lat":51.2423,"lng":-58.647},{"name":"St. Anthony","lat":51.3837,"lng":-55.6},{"name":"St. John's","lat":47.585,"lng":-52.681},{"name":"St.-Jerome","lat":45.7666,"lng":-74},{"name":"Steinbach","lat":49.5171,"lng":-96.6833},{"name":"Stephenville","lat":48.5504,"lng":-58.5666},{"name":"Stettler","lat":52.333,"lng":-112.6833},{"name":"Stony Rapids","lat":59.2666,"lng":-105.8333},{"name":"Sudbury","lat":46.5,"lng":-80.9666},{"name":"Swift Current","lat":50.2837,"lng":-107.7666},{"name":"Sydney","lat":46.0661,"lng":-60.18},{"name":"Taloyoak","lat":69.5333,"lng":-93.5333},{"name":"Terrace","lat":54.5,"lng":-128.5833},{"name":"The Pas","lat":53.8166,"lng":-101.2333},{"name":"Thessalon","lat":46.25,"lng":-83.55},{"name":"Thompson","lat":55.7499,"lng":-97.8666},{"name":"Thunder Bay","lat":48.4462,"lng":-89.275},{"name":"Timmins","lat":48.4666,"lng":-81.3333},{"name":"Tofino","lat":49.1521,"lng":-125.9031},{"name":"Toronto","lat":43.7,"lng":-79.42},{"name":"Trepassey","lat":46.737,"lng":-53.3633},{"name":"Trois Rivieres","lat":46.35,"lng":-72.5499},{"name":"Trout River","lat":49.4837,"lng":-58.1166},{"name":"Tsiigehtchic","lat":67.4333,"lng":-133.75},{"name":"Tuktoyaktuk","lat":69.4548,"lng":-133.0492},{"name":"Uranium City","lat":59.5666,"lng":-108.6166},{"name":"Val d'Or","lat":48.1166,"lng":-77.7666},{"name":"Vancouver","lat":49.2734,"lng":-123.1216},{"name":"Vegreville","lat":53.5,"lng":-112.05},{"name":"Victoria","lat":48.4333,"lng":-123.35},{"name":"Victoriaville","lat":46.0504,"lng":-71.9667},{"name":"Watson Lake","lat":60.1166,"lng":-128.8},{"name":"Wawa","lat":48.0004,"lng":-84.7833},{"name":"Wetaskiwin","lat":52.9666,"lng":-113.3833},{"name":"Weyburn","lat":49.6666,"lng":-103.85},{"name":"Whitehorse","lat":60.7167,"lng":-135.05},{"name":"Wiarton","lat":44.7337,"lng":-81.1333},{"name":"Williams Lake","lat":52.1166,"lng":-122.15},{"name":"Windsor","lat":44.9806,"lng":-64.1291},{"name":"Windsor","lat":42.3333,"lng":-83.0333},{"name":"Winnipeg","lat":49.883,"lng":-97.166},{"name":"Yarmouth","lat":43.8308,"lng":-66.1126},{"name":"Yellowknife","lat":62.442,"lng":-114.397},{"name":"Yorkton","lat":51.2171,"lng":-102.4665}],"Cayman Islands":[{"name":"George Town","lat":19.2804,"lng":-81.33}],"Central African Republic":[{"name":"Bambari","lat":5.762,"lng":20.6672},{"name":"Bangassou","lat":4.7338,"lng":22.8166},{"name":"Bangui","lat":4.3666,"lng":18.5583},{"name":"Berberati","lat":4.25,"lng":15.78},{"name":"Bimbo","lat":4.329,"lng":18.5284},{"name":"Birao","lat":10.2837,"lng":22.7833},{"name":"Bossangoa","lat":6.4837,"lng":17.45},{"name":"Bossembele","lat":5.267,"lng":17.65},{"name":"Bouar","lat":5.95,"lng":15.6},{"name":"Bozoum","lat":6.317,"lng":16.3833},{"name":"Bria","lat":6.5333,"lng":21.9833},{"name":"Carnot","lat":4.9337,"lng":15.8666},{"name":"Kaga Bandoro","lat":6.9804,"lng":19.18},{"name":"Mbaiki","lat":3.8704,"lng":18},{"name":"Mobaye","lat":4.32,"lng":21.18},{"name":"Ndele","lat":8.4091,"lng":20.653},{"name":"Nola","lat":3.5337,"lng":16.0666},{"name":"Obo","lat":5.4,"lng":26.5},{"name":"Ouadda","lat":8.0671,"lng":22.4},{"name":"Sibut","lat":5.7338,"lng":19.0833},{"name":"Yakossi","lat":5.617,"lng":23.3167},{"name":"Zemio","lat":5.0337,"lng":25.1333}],"Chad":[{"name":"Abeche","lat":13.84,"lng":20.83},{"name":"Am Djarass","lat":16.0659,"lng":22.8431},{"name":"Am Timan","lat":11.0333,"lng":20.2833},{"name":"Ati","lat":13.2171,"lng":18.3333},{"name":"Bardai","lat":21.3549,"lng":17.0012},{"name":"Biltine","lat":14.5333,"lng":20.9167},{"name":"Bol","lat":13.459,"lng":14.7147},{"name":"Bongor","lat":10.2859,"lng":15.3872},{"name":"Doba","lat":8.6504,"lng":16.85},{"name":"Fada","lat":17.1847,"lng":21.5902},{"name":"Faya Largeau","lat":17.9167,"lng":19.1167},{"name":"Goz Beida","lat":12.2248,"lng":21.4103},{"name":"Kelo","lat":9.3171,"lng":15.8},{"name":"Koumra","lat":8.9126,"lng":17.5539},{"name":"Lai","lat":9.395,"lng":16.305},{"name":"Mao","lat":14.1194,"lng":15.3133},{"name":"Massakory","lat":12.996,"lng":15.7293},{"name":"Massenya","lat":11.4039,"lng":16.1705},{"name":"Mongo","lat":12.1837,"lng":18.7},{"name":"Moundou","lat":8.55,"lng":16.09},{"name":"Moussoro","lat":13.6414,"lng":16.4894},{"name":"Ndjamena","lat":12.1131,"lng":15.0491},{"name":"Oum Hadjer","lat":13.3004,"lng":19.6833},{"name":"Pala","lat":9.3642,"lng":14.9046},{"name":"Pala","lat":9.3504,"lng":14.9666},{"name":"Sarh","lat":9.15,"lng":18.39},{"name":"Zouar","lat":20.4587,"lng":16.5278}],"Chile":[{"name":"Ancud","lat":-41.87,"lng":-73.83},{"name":"Angol","lat":-37.79,"lng":-72.71},{"name":"Antofagasta","lat":-23.65,"lng":-70.4},{"name":"Arica","lat":-18.5,"lng":-70.29},{"name":"Calama","lat":-22.45,"lng":-68.92},{"name":"Calbuco","lat":-41.7522,"lng":-73.1416},{"name":"Caldera","lat":-27.0696,"lng":-70.83},{"name":"Carahue","lat":-38.7095,"lng":-73.17},{"name":"Castro","lat":-42.4808,"lng":-73.7623},{"name":"Cauquenes","lat":-35.96,"lng":-72.32},{"name":"Chanaral","lat":-29.03,"lng":-71.43},{"name":"Chillan","lat":-36.6,"lng":-72.106},{"name":"Chonchi","lat":-42.61,"lng":-73.8099},{"name":"Chuquicamata","lat":-22.32,"lng":-68.93},{"name":"Cochrane","lat":-47.2663,"lng":-72.5499},{"name":"Coihaique","lat":-45.57,"lng":-72.07},{"name":"Collipulli","lat":-37.96,"lng":-72.43},{"name":"Combarbala","lat":-31.18,"lng":-71},{"name":"Concepcion","lat":-36.83,"lng":-73.05},{"name":"Constitucion","lat":-35.3296,"lng":-72.42},{"name":"Copiapo","lat":-27.36,"lng":-70.34},{"name":"Coquimbo","lat":-29.9529,"lng":-71.3436},{"name":"Coronel","lat":-37.03,"lng":-73.16},{"name":"Curanilahue","lat":-37.48,"lng":-73.34},{"name":"Curico","lat":-34.98,"lng":-71.24},{"name":"Cuya","lat":-19.1167,"lng":-70.1333},{"name":"Diego de Almagro","lat":-26.3696,"lng":-70.05},{"name":"Huasco","lat":-28.4696,"lng":-71.22},{"name":"Illapel","lat":-31.6296,"lng":-71.17},{"name":"Iquique","lat":-20.25,"lng":-70.13},{"name":"La Ligua","lat":-32.46,"lng":-71.24},{"name":"La Serena","lat":-29.9,"lng":-71.25},{"name":"La Union","lat":-40.29,"lng":-73.09},{"name":"Lagunas","lat":-20.9829,"lng":-69.6833},{"name":"Lebu","lat":-37.6096,"lng":-73.65},{"name":"Linares","lat":-35.84,"lng":-71.59},{"name":"Loncoche","lat":-39.37,"lng":-72.63},{"name":"Lonquimay","lat":-38.4333,"lng":-71.2333},{"name":"Los Andes","lat":-32.8296,"lng":-70.6},{"name":"Los Angeles","lat":-37.46,"lng":-72.36},{"name":"Los Lagos","lat":-39.8495,"lng":-72.83},{"name":"Lota","lat":-37.0896,"lng":-73.16},{"name":"Maria Elena","lat":-22.35,"lng":-69.67},{"name":"Mejillones","lat":-23.1,"lng":-70.45},{"name":"Nueva Imperial","lat":-38.74,"lng":-72.96},{"name":"Osorno","lat":-40.57,"lng":-73.16},{"name":"Ovalle","lat":-30.59,"lng":-71.2001},{"name":"Pichilemu","lat":-34.38,"lng":-72},{"name":"Pozo Almonte","lat":-20.2696,"lng":-69.8},{"name":"Puerto Aisen","lat":-45.3999,"lng":-72.7},{"name":"Puerto Montt","lat":-41.47,"lng":-72.93},{"name":"Puerto Natales","lat":-51.7183,"lng":-72.5117},{"name":"Puerto Varas","lat":-41.33,"lng":-72.99},{"name":"Puerto Williams","lat":-54.9333,"lng":-67.6167},{"name":"Punta Arenas","lat":-53.165,"lng":-70.94},{"name":"Quellon","lat":-43.0996,"lng":-73.6},{"name":"Quillota","lat":-32.88,"lng":-71.26},{"name":"Quirihue","lat":-36.28,"lng":-72.53},{"name":"Rancagua","lat":-34.17,"lng":-70.74},{"name":"Rio Bueno","lat":-40.34,"lng":-72.96},{"name":"Rio Verde","lat":-52.65,"lng":-71.4666},{"name":"Salamanca","lat":-31.7796,"lng":-70.98},{"name":"San Antonio","lat":-33.5995,"lng":-71.61},{"name":"San Bernardo","lat":-33.6,"lng":-70.7},{"name":"San Felipe","lat":-32.75,"lng":-70.72},{"name":"San Fernando","lat":-34.58,"lng":-70.99},{"name":"Santa Barbara","lat":-37.67,"lng":-72.02},{"name":"Santiago","lat":-33.45,"lng":-70.667},{"name":"Talca","lat":-35.455,"lng":-71.67},{"name":"Talcahuano","lat":-36.7167,"lng":-73.1167},{"name":"Taltal","lat":-25.4,"lng":-70.47},{"name":"Temuco","lat":-38.73,"lng":-72.58},{"name":"Tierra Amarilla","lat":-27.48,"lng":-70.28},{"name":"Toconao","lat":-23.1829,"lng":-68.0166},{"name":"Tocopilla","lat":-22.09,"lng":-70.19},{"name":"Tolten","lat":-39.2166,"lng":-73.2123},{"name":"Valdivia","lat":-39.795,"lng":-73.245},{"name":"Vallenar","lat":-28.57,"lng":-70.76},{"name":"Valparaiso","lat":-33.0478,"lng":-71.621},{"name":"Victoria","lat":-38.2395,"lng":-72.34},{"name":"Vicuna","lat":-30.0295,"lng":-70.74},{"name":"Villa O'Higgins","lat":-48.4679,"lng":-72.56},{"name":"Villarica","lat":-39.28,"lng":-72.23},{"name":"Vina del Mar","lat":-33.03,"lng":-71.54}],"China":[{"name":"Aksu","lat":41.15,"lng":80.25},{"name":"Altay","lat":47.8666,"lng":88.1166},{"name":"Alxa Zuoqi","lat":38.839,"lng":105.6686},{"name":"Anda","lat":46.4,"lng":125.32},{"name":"Angangxi","lat":47.1601,"lng":123.8},{"name":"Ankang","lat":32.68,"lng":109.02},{"name":"Anlu","lat":31.27,"lng":113.67},{"name":"Anqing","lat":30.5,"lng":117.05},{"name":"Anshan","lat":41.115,"lng":122.94},{"name":"Anshun","lat":26.2504,"lng":105.93},{"name":"Anxi","lat":40.5004,"lng":95.8},{"name":"Anyang","lat":36.08,"lng":114.35},{"name":"Arxan","lat":47.1833,"lng":119.9666},{"name":"Baicheng","lat":45.62,"lng":122.82},{"name":"Baiquan","lat":47.6018,"lng":126.0819},{"name":"Bairin Zuoqi","lat":43.9837,"lng":119.1834},{"name":"Baishan","lat":41.9,"lng":126.43},{"name":"Baoding","lat":38.8704,"lng":115.48},{"name":"Baoji","lat":34.38,"lng":107.15},{"name":"Baoshan","lat":25.12,"lng":99.15},{"name":"Baotou","lat":40.6522,"lng":109.822},{"name":"Bayan Obo","lat":41.7676,"lng":109.9711},{"name":"Beian","lat":48.239,"lng":126.482},{"name":"Beihai","lat":21.4804,"lng":109.1},{"name":"Beijing","lat":39.9289,"lng":116.3883},{"name":"Beipiao","lat":41.81,"lng":120.76},{"name":"Bengbu","lat":32.95,"lng":117.33},{"name":"Benxi","lat":41.3304,"lng":123.75},{"name":"Boli","lat":45.7564,"lng":130.5759},{"name":"Bose","lat":23.8997,"lng":106.6133},{"name":"Bugt","lat":48.7838,"lng":121.9334},{"name":"Buizhou","lat":37.3704,"lng":118.02},{"name":"Cangzhou","lat":38.3204,"lng":116.87},{"name":"Chamdo","lat":31.1667,"lng":97.2333},{"name":"Changchun","lat":43.865,"lng":125.34},{"name":"Changde","lat":29.03,"lng":111.68},{"name":"Changling","lat":44.27,"lng":123.99},{"name":"Changping","lat":40.2248,"lng":116.1944},{"name":"Changsha","lat":28.2,"lng":112.97},{"name":"Changting","lat":25.867,"lng":116.3167},{"name":"Changzhi","lat":36.1839,"lng":113.1053},{"name":"Changzhou","lat":31.78,"lng":119.97},{"name":"Chaoyang","lat":41.5504,"lng":120.42},{"name":"Chaozhou","lat":23.68,"lng":116.63},{"name":"Chengde","lat":40.9604,"lng":117.93},{"name":"Chengdu","lat":30.67,"lng":104.07},{"name":"Chenzhou","lat":25.8004,"lng":113.0301},{"name":"Chifeng","lat":42.27,"lng":118.95},{"name":"Chongqing","lat":29.565,"lng":106.595},{"name":"Chuxiong","lat":25.0364,"lng":101.5456},{"name":"Daan","lat":45.5,"lng":124.3},{"name":"Dali","lat":34.7953,"lng":109.9378},{"name":"Dali","lat":25.7,"lng":100.18},{"name":"Dalian","lat":38.9228,"lng":121.6298},{"name":"Dandong","lat":40.1436,"lng":124.3936},{"name":"Danjiangkou","lat":32.52,"lng":111.5},{"name":"Daqing","lat":46.58,"lng":125},{"name":"Datong","lat":40.08,"lng":113.3},{"name":"Dengzhou","lat":32.6804,"lng":112.08},{"name":"Deyang","lat":31.1333,"lng":104.4},{"name":"Dezhou","lat":37.4504,"lng":116.3},{"name":"Dingzhou","lat":38.5004,"lng":115},{"name":"Dongguan","lat":23.0489,"lng":113.7447},{"name":"Dunhua","lat":43.3505,"lng":128.22},{"name":"Dunhuang","lat":40.1427,"lng":94.662},{"name":"Erenhot","lat":43.6616,"lng":111.9655},{"name":"Ergun Zuoqi","lat":50.7833,"lng":121.5167},{"name":"Fengcheng","lat":28.2004,"lng":115.77},{"name":"Fengjie","lat":31.0504,"lng":109.5167},{"name":"Fengzhen","lat":40.4547,"lng":113.1443},{"name":"Foshan","lat":23.0301,"lng":113.12},{"name":"Fuan","lat":27.0704,"lng":119.62},{"name":"Fujin","lat":47.2704,"lng":132.02},{"name":"Fulin","lat":29.35,"lng":102.7167},{"name":"Fushun","lat":41.8654,"lng":123.87},{"name":"Fuxin","lat":42.0105,"lng":121.66},{"name":"Fuyang","lat":32.9004,"lng":115.82},{"name":"Fuyang","lat":30.0533,"lng":119.9519},{"name":"Fuyu","lat":45.1804,"lng":124.82},{"name":"Fuzhou","lat":26.08,"lng":119.3},{"name":"Gannan","lat":47.9204,"lng":123.51},{"name":"Ganzhou","lat":25.92,"lng":114.95},{"name":"Gar","lat":32.2004,"lng":79.9833},{"name":"Gejiu","lat":23.38,"lng":103.1501},{"name":"Golmud","lat":36.4166,"lng":94.8833},{"name":"Guangshui","lat":31.6204,"lng":114},{"name":"Guangyuan","lat":32.43,"lng":105.87},{"name":"Guangzhou","lat":23.145,"lng":113.325},{"name":"Guide","lat":36.0451,"lng":101.4242},{"name":"Guilin","lat":25.28,"lng":110.28},{"name":"Guiyang","lat":26.58,"lng":106.72},{"name":"Gyangze","lat":28.95,"lng":89.6333},{"name":"Haikou","lat":20.05,"lng":110.32},{"name":"Hailar","lat":49.2,"lng":119.7},{"name":"Hailun","lat":47.4504,"lng":126.93},{"name":"Hami","lat":42.827,"lng":93.515},{"name":"Hancheng","lat":35.4704,"lng":110.43},{"name":"Handan","lat":36.58,"lng":114.48},{"name":"Hanggin Houqi","lat":40.8847,"lng":107.14},{"name":"Hangu","lat":39.232,"lng":117.777},{"name":"Hangzhou","lat":30.25,"lng":120.17},{"name":"Hanzhong","lat":33.13,"lng":107.03},{"name":"Harbin","lat":45.75,"lng":126.65},{"name":"Hebi","lat":35.9504,"lng":114.22},{"name":"Hechi","lat":23.0965,"lng":109.6091},{"name":"Hefei","lat":31.85,"lng":117.28},{"name":"Hegang","lat":47.4,"lng":130.37},{"name":"Heihe","lat":50.25,"lng":127.446},{"name":"Helong","lat":42.5348,"lng":129.0044},{"name":"Hengshui","lat":37.72,"lng":115.7},{"name":"Hengyang","lat":26.88,"lng":112.59},{"name":"Heyuan","lat":23.7304,"lng":114.68},{"name":"Heze","lat":35.23,"lng":115.45},{"name":"Hohhot","lat":40.82,"lng":111.66},{"name":"Hotan","lat":37.0997,"lng":79.9269},{"name":"Houma","lat":35.62,"lng":111.21},{"name":"Huaibei","lat":33.9504,"lng":116.75},{"name":"Huainan","lat":32.63,"lng":116.98},{"name":"Huaiyin","lat":33.58,"lng":119.03},{"name":"Huanghua","lat":38.3704,"lng":117.33},{"name":"Huangshi","lat":30.22,"lng":115.1},{"name":"Huangyan","lat":28.65,"lng":121.25},{"name":"Huanren","lat":41.2563,"lng":125.346},{"name":"Huinan","lat":42.6229,"lng":126.2614},{"name":"Huize","lat":26.3504,"lng":103.4167},{"name":"Huizhou","lat":23.08,"lng":114.4},{"name":"Hulan Ergi","lat":47.21,"lng":123.61},{"name":"Hulin","lat":45.769,"lng":132.9922},{"name":"Huzhou","lat":30.8704,"lng":120.1},{"name":"Jiamusi","lat":46.83,"lng":130.35},{"name":"Jian","lat":27.1304,"lng":115},{"name":"Jiangmen","lat":22.5804,"lng":113.08},{"name":"Jianmen","lat":30.6501,"lng":113.16},{"name":"Jiaohe","lat":43.7163,"lng":127.346},{"name":"Jiaojing","lat":28.6804,"lng":121.45},{"name":"Jiaozuo","lat":35.25,"lng":113.22},{"name":"Jiaxing","lat":30.7704,"lng":120.75},{"name":"Jiayuguan","lat":39.82,"lng":98.3},{"name":"Jieshou","lat":33.2504,"lng":115.35},{"name":"Jiexiu","lat":37.04,"lng":111.9},{"name":"Jilin","lat":43.85,"lng":126.55},{"name":"Jinan","lat":36.675,"lng":116.995},{"name":"Jinchang","lat":38.4957,"lng":102.1739},{"name":"Jincheng","lat":35.5004,"lng":112.83},{"name":"Jingdezhen","lat":29.2704,"lng":117.18},{"name":"Jingmen","lat":31.0304,"lng":112.1},{"name":"Jinhua","lat":29.12,"lng":119.65},{"name":"Jining","lat":35.4004,"lng":116.55},{"name":"Jining","lat":41.03,"lng":113.08},{"name":"Jinshi","lat":29.6321,"lng":111.8517},{"name":"Jinxi","lat":40.7503,"lng":120.83},{"name":"Jinzhou","lat":41.1204,"lng":121.1},{"name":"Jiujiang","lat":29.73,"lng":115.98},{"name":"Jiutai","lat":44.1447,"lng":125.8443},{"name":"Jixi","lat":45.3,"lng":130.97},{"name":"Jyekundo","lat":33.0166,"lng":96.7333},{"name":"Kaifeng","lat":34.85,"lng":114.35},{"name":"Kailu","lat":43.5837,"lng":121.2},{"name":"Karamay","lat":45.5899,"lng":84.8599},{"name":"Kashgar","lat":39.4763,"lng":75.9699},{"name":"Keshan","lat":48.0263,"lng":125.866},{"name":"Koktokay","lat":47.0004,"lng":89.4666},{"name":"Korla","lat":41.73,"lng":86.15},{"name":"Kunming","lat":25.07,"lng":102.68},{"name":"Kuqa","lat":41.7277,"lng":82.9364},{"name":"Laiwu","lat":36.2004,"lng":117.66},{"name":"Laiyang","lat":36.9684,"lng":120.7084},{"name":"Langfang","lat":39.5204,"lng":116.68},{"name":"Langzhong","lat":31.5759,"lng":105.9656},{"name":"Lanxi","lat":46.2664,"lng":126.276},{"name":"Lanzhou","lat":36.056,"lng":103.792},{"name":"Leshan","lat":29.5671,"lng":103.7333},{"name":"Lhasa","lat":29.645,"lng":91.1},{"name":"Lianxian","lat":24.7815,"lng":112.3825},{"name":"Lianyungang","lat":34.6004,"lng":119.17},{"name":"Liaocheng","lat":36.4304,"lng":115.97},{"name":"Liaoyang","lat":41.28,"lng":123.18},{"name":"Liaoyuan","lat":42.9,"lng":125.13},{"name":"Lijiang","lat":26.8,"lng":100.2666},{"name":"Linchuan","lat":27.9703,"lng":116.36},{"name":"Linfen","lat":36.0803,"lng":111.52},{"name":"Lingyuan","lat":41.24,"lng":119.4011},{"name":"Linhai","lat":28.85,"lng":121.12},{"name":"Linjiang","lat":41.8363,"lng":126.936},{"name":"Linkou","lat":45.2819,"lng":130.2519},{"name":"Linqing","lat":36.8504,"lng":115.68},{"name":"Linxi","lat":43.5171,"lng":118.0333},{"name":"Linxia","lat":35.6,"lng":103.2},{"name":"Linyi","lat":35.08,"lng":118.33},{"name":"Lishui","lat":28.4504,"lng":119.9},{"name":"Liuhe","lat":42.2789,"lng":125.7173},{"name":"Liuzhou","lat":24.28,"lng":109.25},{"name":"Longjiang","lat":47.3404,"lng":123.18},{"name":"Longxi","lat":35.0476,"lng":104.6394},{"name":"Longyan","lat":25.1804,"lng":117.03},{"name":"Luan","lat":31.7503,"lng":116.48},{"name":"Luohe","lat":33.57,"lng":114.03},{"name":"Luoyang","lat":34.68,"lng":112.4701},{"name":"Lupanshui","lat":26.5944,"lng":104.8333},{"name":"Luzhou","lat":28.88,"lng":105.38},{"name":"Maanshan","lat":31.7304,"lng":118.48},{"name":"Macheng","lat":31.18,"lng":115.03},{"name":"Manzhouli","lat":49.6,"lng":117.43},{"name":"Maoming","lat":21.9204,"lng":110.87},{"name":"Meizhou","lat":24.3005,"lng":116.12},{"name":"Mengzi","lat":23.3619,"lng":103.4061},{"name":"Mianyang","lat":31.47,"lng":104.77},{"name":"Minxian","lat":34.4362,"lng":104.0306},{"name":"Mishan","lat":45.5504,"lng":131.88},{"name":"Mudangiang","lat":44.575,"lng":129.59},{"name":"Nagchu","lat":31.48,"lng":92.05},{"name":"Nancha","lat":47.1364,"lng":129.2859},{"name":"Nanchang","lat":28.68,"lng":115.88},{"name":"Nanchong","lat":30.7804,"lng":106.13},{"name":"Nangong","lat":37.3704,"lng":115.37},{"name":"Nanjing","lat":32.05,"lng":118.78},{"name":"Nanning","lat":22.82,"lng":108.32},{"name":"Nanping","lat":26.6304,"lng":118.17},{"name":"Nantong","lat":32.0304,"lng":120.825},{"name":"Nanyang","lat":33.0004,"lng":112.53},{"name":"Nehe","lat":48.49,"lng":124.88},{"name":"Neijiang","lat":29.5804,"lng":105.05},{"name":"Nenjiang","lat":49.18,"lng":125.23},{"name":"Ninde","lat":26.6804,"lng":119.5301},{"name":"Ningan","lat":44.3313,"lng":129.4659},{"name":"Ningbo","lat":29.88,"lng":121.55},{"name":"Nongan","lat":44.4304,"lng":125.1701},{"name":"Nyingchi","lat":29.5333,"lng":94.4167},{"name":"Orongen Zizhiqi","lat":50.5667,"lng":123.7167},{"name":"Panshi","lat":42.9426,"lng":126.0561},{"name":"Panzhihua","lat":26.55,"lng":101.73},{"name":"Pingdingshan","lat":33.7304,"lng":113.3},{"name":"Pingdu","lat":36.7904,"lng":119.94},{"name":"Pingliang","lat":35.5304,"lng":106.6801},{"name":"Pingxiang","lat":22.0974,"lng":106.7567},{"name":"Pingxiang","lat":27.62,"lng":113.85},{"name":"Pingyi","lat":35.5104,"lng":117.62},{"name":"Puqi","lat":29.7204,"lng":113.88},{"name":"Putian","lat":25.4303,"lng":119.02},{"name":"Puyang","lat":35.7004,"lng":114.98},{"name":"Qingan","lat":46.8719,"lng":127.5118},{"name":"Qingdao","lat":36.09,"lng":120.33},{"name":"Qinggang","lat":46.69,"lng":126.1},{"name":"Qingyuan","lat":23.7004,"lng":113.0301},{"name":"Qinhuangdao","lat":39.9304,"lng":119.62},{"name":"Qinzhou","lat":21.9504,"lng":108.62},{"name":"Qiqihar","lat":47.345,"lng":123.99},{"name":"Qitaihe","lat":45.8,"lng":130.85},{"name":"Quanzhou","lat":24.9,"lng":118.58},{"name":"Quiemo","lat":38.1338,"lng":85.5333},{"name":"Quzhou","lat":28.9704,"lng":118.87},{"name":"Rizhao","lat":35.4304,"lng":119.45},{"name":"Rongzhag","lat":30.9504,"lng":101.9167},{"name":"Sanming","lat":26.23,"lng":117.58},{"name":"Sanya","lat":18.2591,"lng":109.504},{"name":"Shache","lat":38.4261,"lng":77.25},{"name":"Shangdu","lat":41.5494,"lng":113.5339},{"name":"Shanghai","lat":31.2165,"lng":121.4365},{"name":"Shangqiu","lat":34.4504,"lng":115.65},{"name":"Shangrao","lat":28.4704,"lng":117.97},{"name":"Shangzhi","lat":45.2204,"lng":127.97},